{"links": [{"details": {"address": "Stensberggata 21, Oslo, St.Hanshaugen - Ullevål", "area": "35 m²", "geocode": {"lng": 10.7381131, "lat": 59.92146}, "text": "St. Hanshaugen - Lys 2-roms selveierleilighet i 4.etg. med heis og god planløsning - VV. inkludert - Lave fellekostn.", "price": "3 190 000 kr"}, "link": "https://www.finn.no/realestate/homes/ad.html?finnkode=153434427", "visnings": ["onsdag 07. august, kl. 17:00–18:00"]}, {"details": {"address": "Grenseveien 61B, Oslo, Helsfyr - Sinsen", "area": "52 m²", "geocode": {"lng": 10.7936108, "lat": 59.91953149999999}, "text": "Ensjø/Hasle - Tiltalende 3-romsleilighet med koselig uteplass, arealeffektiv planløsning og sentral beliggenhet.", "price": "4 000 000 kr"}, "link": "https://www.finn.no/realestate/homes/ad.html?finnkode=154138652", "visnings": ["søndag 11. august, kl. 1530–1630", "tirsdag 13. august, kl. 1700–1800"]}, {"details": {"address": "Jacob Aalls gate 23B, Oslo, Uranienborg - Majorstuen", "area": "36 m²", "geocode": {"lng": 10.7199505, "lat": 59.9292422}, "text": "#MAJORSTUEN - Super fin nyoppusset 2 roms leilighet på beste Majorstuen | Arealeffektiv | Moderne kjøkken og bad fra 2019 | Fyring&V.V", "price": "3 700 000 kr"}, "link": "https://www.finn.no/realestate/homes/ad.html?finnkode=153465447", "visnings": ["søndag 11. august, kl. 1430–1530", "søndag 25. august, kl. 1500–1600"]}, {"details": {"address": "Inkognitogata 4, Oslo, Uranienborg - Majorstuen", "area": "55 m²", "geocode": {"lng": 10.7248784, "lat": 59.9195022}, "text": "Uranienborg - Attraktiv 3-R i ærverdig bygård rett bak slottet.  Klassiske detaljer. Nyoppusset bad/wc og kjøkken.", "price": "4 850 000 kr"}, "link": "https://www.finn.no/realestate/homes/ad.html?finnkode=153949112", "visnings": ["søndag 11. august, kl. 13:00–14:00", "mandag 12. august, kl. 17:00–18:00"]}, {"details": {"address": "Hammerstads gate 26, Oslo, Uranienborg - Majorstuen", "area": "52 m²", "geocode": {"lng": 10.7179748, "lat": 59.9313629}, "text": "Majorstuen - Sentralt og rolig - Nyere kjøkken og bad - Høy 1 etg. - Flott bakgård - Rett ved T-bane - Ingen. dok. avg.", "price": "4 190 000 kr"}, "link": "https://www.finn.no/realestate/homes/ad.html?finnkode=147552245", "visnings": ["torsdag 15. august, kl. 18:00–19:00", "søndag 18. august, kl. 14:00–15:00"]}, {"details": {"address": "Betzy Kjelsbergsvei 4 A, Oslo, Grefsen - Kjelsås", "area": "55 m²", "geocode": {"lng": 10.7752826, "lat": 59.9523571}, "text": "Grefsen/Lillo: Lys 2 (3)-roms m/stor innglasset balkong. Varmt vann og fyring inkl. Rolig beliggenhet", "price": "3 450 000 kr"}, "link": "https://www.finn.no/realestate/homes/ad.html?finnkode=146207175", "visnings": ["søndag 11. august, kl. 1430–1530", "mandag 12. august, kl. 1730–1830", "mandag 19. august, kl. 1700–1800"]}, {"details": {"address": "Løvsetfaret 56, Oslo, Bøler", "area": "166 m²", "geocode": {"lng": 10.8344879, "lat": 59.8729349}, "text": "Skullerud/Langerud - Innholdsrikt og romslig rekkehus med svært god barnevennlig beliggenhet", "price": "7 200 000 kr"}, "link": "https://www.finn.no/realestate/homes/ad.html?finnkode=154024768", "visnings": ["torsdag 15. august, kl. 17:00–18:00", "søndag 18. august, kl. 15:00–16:00"]}, {"details": {"address": "Solåsveien 20 B, Oslo, Østensjø", "area": "138 m²", "geocode": {"lng": 10.8427131, "lat": 59.9085485}, "text": "Godlia - Nyere halvpart av vertkaldelt tomannsbolig med topp standard og meget god beliggenhet", "price": "10 000 000 kr"}, "link": "https://www.finn.no/realestate/homes/ad.html?finnkode=154079785", "visnings": ["søndag 18. august, kl. 12:00–13:00", "mandag 19. august, kl. 17:00–18:00"]}, {"details": {"address": "Vogts gate 15, Oslo, Sagene - Torshov", "area": "35 m²", "geocode": {"lng": 10.7616362, "lat": 59.9309413}, "text": "Grünerløkka/torshov - Lekker og gjennomgående 2-roms selveier leilighet med sentral beliggenhet. Kort vei til kollektiv transport.", "price": "3 250 000 kr"}, "link": "https://www.finn.no/realestate/homes/ad.html?finnkode=154116775", "visnings": ["søndag 11. august, kl. 12:30–13:30", "mandag 12. august, kl. 16:30–17:30"]}, {"details": {"address": "Grusveien 8, Oslo, Lambertseter", "area": "54 m²", "geocode": {"lng": 10.8213473, "lat": 59.86564869999999}, "text": "Lambertseter - Lekker og arealeffektiv 3-roms leilighet med solrik balkong. Sentral beliggenhet. Fyring og varmt vann inkl.", "price": "3 500 000 kr"}, "link": "https://www.finn.no/realestate/homes/ad.html?finnkode=154059346", "visnings": ["tirsdag 13. august, kl. 18:00–19:00", "tirsdag 20. august, kl. 18:00–19:00"]}, {"details": {"address": "Hafrsfjordgata 26A, Oslo, Bygdøy - Frogner", "area": "83 m²", "geocode": {"lng": 10.699607, "lat": 59.92019870000001}, "text": "Frogner - Lekker gjennomgående leil m/ usjenert beliggenhet v/den amerikanske ambassadeboligen. Balkong. Heis. Peis. *Parkering", "price": "7 950 000 kr"}, "link": "https://www.finn.no/realestate/homes/ad.html?finnkode=151101986", "visnings": ["tirsdag 13. august, kl. 17:00–18:00", "onsdag 14. august, kl. 17:00–18:00", "søndag 25. august, kl. 13:00–14:00"]}, {"details": {"address": "Dr. Dedichens vei 76, Oslo, Hellerud", "area": "59 m²", "geocode": {"lng": 10.8683839, "lat": 59.9256755}, "text": "TROSTERUD - Romslig 2-roms andelsleilighet med nordvendt balkong-God planløsning-Utsikt-Kort vei til t-banens linje 2 og marka.", "price": "2 700 000 kr"}, "link": "https://www.finn.no/realestate/homes/ad.html?finnkode=154062692", "visnings": ["søndag 11. august, kl. 15:00–16:00", "tirsdag 13. august, kl. 17:30–18:30"]}, {"details": {"address": "Hammergata 18A, Oslo, Sagene - Torshov", "area": "34 m²", "geocode": {"lng": 10.759018, "lat": 59.93852690000001}, "text": "SAGENE - Svært attraktiv 1-r. m/hemsløsning, separat kjøkken. Bad fra 2012. Felles takterr. Heis. IN-ordning.", "price": "2 950 000 kr"}, "link": "https://www.finn.no/realestate/homes/ad.html?finnkode=154027070", "visnings": ["søndag 11. august, kl. 12:30–13:30", "tirsdag 13. august, kl. 18:30–19:30"]}, {"details": {"address": "Norbygata 56A, Oslo, Gamle Oslo", "area": "59 m²", "geocode": {"lng": 10.765584, "lat": 59.9130671}, "text": "Grønland - 3/4-roms selveierleilighet i loftsetasje med 79 kvm gulvareal. Solrik terrasse og meget sentral beliggenhet. Mod.behov.", "price": "4 490 000 kr"}, "link": "https://www.finn.no/realestate/homes/ad.html?finnkode=148278244", "visnings": ["mandag 12. august, kl. 1700–1800"]}, {"details": {"address": "Pilestredet Park 24, Oslo, St.Hanshaugen - Ullevål", "area": "47 m²", "geocode": {"lng": 10.737309, "lat": 59.9189342}, "text": "Pilestredet Park - Lys 2-roms med attraktiv beliggenhet - Vestvendt balkong på 8,5 m² - Heis - Garasjeplass med elbil lader", "price": "4 500 000 kr"}, "link": "https://www.finn.no/realestate/homes/ad.html?finnkode=153687265", "visnings": ["tirsdag 13. august, kl. 18:30–19:30", "onsdag 14. august, kl. 17:00–18:00"]}, {"details": {"address": "Sigurd Hoels vei 17, Oslo, Gamle Oslo", "area": "57 m²", "geocode": {"lng": 10.7855905, "lat": 59.91635420000001}, "text": "#UTSIKTSKVARTALET PÅ ENSJØ - Rålekker 3-roms fra 2018 | Stor og solrik balkong med utsikt | Fjernvarme | Heis | 10-års garanti | Mulig garasjeleie*", "price": "4 800 000 kr"}, "link": "https://www.finn.no/realestate/homes/ad.html?finnkode=154112678", "visnings": ["tirsdag 13. august, kl. 1700–1800", "onsdag 14. august, kl. 1800–1900", "søndag 25. august, kl. 1300–1400"]}, {"details": {"address": "Bøkkerveien 14 C, Oslo, Helsfyr - Sinsen", "area": "96 m²", "geocode": {"lng": 10.7960537, "lat": 59.9275196}, "text": "LØREN/HASLE - Moderne 4-roms med høy standard og to herlige balkonger - Heis - Ingen dok.avgift - To bad - Mulighet for  garasjeplass", "price": "3 500 000 kr"}, "link": "https://www.finn.no/realestate/homes/ad.html?finnkode=150343061", "visnings": ["søndag 11. august, kl. 1430–1530"]}, {"details": {"address": "Stensgata 10b, Oslo, St.Hanshaugen - Ullevål", "area": "53 m²", "geocode": {"lng": 10.7323335, "lat": 59.93003539999999}, "text": "St. Hanshaugen / Bislett - Praktisk og fin 2(3)-roms selveier leilighet, sentral beliggenhet", "price": "4 300 000 kr"}, "link": "https://www.finn.no/realestate/homes/ad.html?finnkode=154104558", "visnings": ["søndag 11. august, kl. 1400–1500", "mandag 12. august, kl. 1830–1930"]}, {"details": {"address": "Sofies gate 10, Oslo, St.Hanshaugen - Ullevål", "area": "54 m²", "geocode": {"lng": 10.7356757, "lat": 59.9223894}, "text": "BISLETT v/OSLO MET - Ny og stor (68 BRA) 2-roms selveier med romslig disponibelt rom. Gulvvarme i alle oppholdsrom. Entreprenørgaranti i 5 år", "price": "3 500 000 kr"}, "link": "https://www.finn.no/realestate/homes/ad.html?finnkode=154097848", "visnings": ["søndag 11. august, kl. 1200–1300"]}, {"details": {"address": "Platous gate 11B, Oslo, Gamle Oslo", "area": "39 m²", "geocode": {"lng": 10.7651761, "lat": 59.9116333}, "text": "GRØNLAND; - Nydelig fabrikkleilighet - Heis - Svalgangsbalkong - Varmtv. inkl - God takhøyde - Gjennomgående - Sentralt", "price": "3 100 000 kr"}, "link": "https://www.finn.no/realestate/homes/ad.html?finnkode=154066332", "visnings": ["mandag 12. august, kl. 18:00–19:00", "tirsdag 13. august, kl. 17:30–18:30"]}, {"details": {"address": "Wilhelms gate 2 B, Oslo, St.Hanshaugen - Ullevål", "area": "56 m²", "geocode": {"lng": 10.7328623, "lat": 59.92720319999999}, "text": "#BISLETT/BOLTELØKKA - Innbydende 3-roms med nyere bad & kjøkken | Vv & fyring inkl | Ingen dok.avgift/forkjøpsrett | Attraktiv beliggenhet", "price": "3 900 000 kr"}, "link": "https://www.finn.no/realestate/homes/ad.html?finnkode=154092529", "visnings": ["onsdag 14. august, kl. 1700–1800"]}, {"details": {"address": "Kalbakkfaret 5, Oslo, Grorud", "area": "62 m²", "geocode": {"lng": 10.8623429, "lat": 59.9482601}, "text": "Kalbakken - Stilren og delikat 2-roms over to plan med innredet loft | Lekkert kjøkken fra 2016 | Nyere overflater | Lave FG/FK!", "price": "2 970 000 kr"}, "link": "https://www.finn.no/realestate/homes/ad.html?finnkode=154077855", "visnings": ["søndag 11. august, kl. 14:30–15:30", "tirsdag 13. august, kl. 16:00–17:00"]}, {"details": {"address": "Gamlelinja 11 B, Oslo, Søndre Nordstrand", "area": "104 m²", "geocode": {"lng": 10.7835549, "lat": 59.83880749999999}, "text": "GAMLELINJA | SØNDRE NORDSTRAND - Tomannsbolig - Flott fjordutsikt - Utbygningsmuligheter - Barnevennlig - INGEN DOK.AVGIFT - Må oppleves!", "price": "5 200 000 kr"}, "link": "https://www.finn.no/realestate/homes/ad.html?finnkode=142330863", "visnings": ["søndag 11. august, kl. 1400–1500", "tirsdag 13. august, kl. 1730–1830"]}, {"details": {"address": "Markveien 30B, Oslo, Grünerløkka - Sofienberg", "area": "39 m²", "geocode": {"lng": 10.7578641, "lat": 59.9240131}, "text": "TOPPLEILIGHET PÅ BESTE GRÜNERLØKKA -Nyoppført (2019) -V.v takterasse - Høy standard med lekre detaljer -God planløsning!", "price": "3 890 000 kr"}, "link": "https://www.finn.no/realestate/homes/ad.html?finnkode=154065492", "visnings": ["søndag 11. august, kl. 14:00–15:00", "mandag 12. august, kl. 18:30–19:30"]}, {"details": {"address": "Sinsenveien 27 C, Oslo", "area": "57 m²", "geocode": {"lng": 10.7944224, "lat": 59.9362172}, "text": "Løren - 3-roms med sydvendt markterrasse på 16 m². Varmtvann inkl. Passer utmerket som førstegangskjøp eller utleie.", "price": "3 700 000 kr"}, "link": "https://www.finn.no/realestate/homes/ad.html?finnkode=154083915", "visnings": ["søndag 11. august, kl. 1315–1415", "mandag 12. august, kl. 1815–1900", "søndag 25. august, kl. 1200–1245"]}, {"details": {"address": "Deichmans gate 13, Oslo, Grünerløkka - Sofienberg", "area": "21 m²", "geocode": {"lng": 10.7494795, "lat": 59.9189951}, "text": "Fredensborg - Arealeffektiv 1-roms med hems - Bad fra 2006 - Perfekt førstegangskjøp - Sentral beliggenhet!", "price": "2 400 000 kr"}, "link": "https://www.finn.no/realestate/homes/ad.html?finnkode=154080735", "visnings": ["søndag 11. august, kl. 1500–1600", "tirsdag 13. august, kl. 1700–1800"]}, {"details": {"address": "Wessels gate 5, Oslo, St.Hanshaugen - Ullevål", "area": "85 m²", "geocode": {"lng": 10.7421329, "lat": 59.91986360000001}, "text": "St.Hanshaugen / Meyerløkka - Klassisk 4-roms toppleilighet - Kjøkken/bad fra Kvik 2006 - takhøyde 2,80 m - Pipeløp -  ved IN-ordning blir felleskostn", "price": "3 900 000 kr"}, "link": "https://www.finn.no/realestate/homes/ad.html?finnkode=147159859", "visnings": ["søndag 11. august, kl. 14:00–15:00", "mandag 12. august, kl. 18:00–19:00"]}, {"details": {"address": "Lillebergveien 11, Oslo, Helsfyr - Sinsen", "area": "62 m²", "geocode": {"lng": 10.7970538, "lat": 59.9204866}, "text": "Hovin - Attraktiv og gj.gående 3 roms toppleilighet -vestvendt solrik balkong -flott utsikt mot byen og grøntområder -peis", "price": "4 500 000 kr"}, "link": "https://www.finn.no/realestate/homes/ad.html?finnkode=154072510", "visnings": ["mandag 12. august, kl. 1700–1800", "tirsdag 13. august, kl. 1700–1800"]}, {"details": {"address": "Ljan terrasse 1, Oslo, Nordstrand", "area": "66 m²", "geocode": {"lng": 10.7822816, "lat": 59.85026679999999}, "text": "Ljan Terrasse/Nordstrand - Lys og romslig leilighet - Mulighet for et ekstra sov - Balkong - parkeringsplass - oppussing", "price": "3 100 000 kr"}, "link": "https://www.finn.no/realestate/homes/ad.html?finnkode=142509085", "visnings": ["tirsdag 13. august, kl. 1700–1800"]}, {"details": {"address": "Stasjonsveien 55 A, Oslo, Røa", "area": "77 m²", "geocode": {"lng": 10.6639019, "lat": 59.9478114}, "text": "Holmengrenda v./Gressbanen - Ny & Lekker 3-roms fra 2018 - God takhøyde - Markterrasse - Heis - Garasjeplass - 2 soverom", "price": "5 990 000 kr"}, "link": "https://www.finn.no/realestate/homes/ad.html?finnkode=154028653", "visnings": ["søndag 11. august, kl. 12:30–13:30", "mandag 12. august, kl. 18:30–19:30"]}, {"details": {"address": "Operagata 33, Oslo, Gamle Oslo", "area": "50 m²", "geocode": {"lng": 10.7554192, "lat": 59.90767510000001}, "text": "Bjørvika - Munch Brygge - Ny & betydelig påkostet selveierleilighet, med 11 m2 balkong - utsikt mot fjord og Ekeberg - * Leie/kjøp av garasje", "price": "6 749 000 kr"}, "link": "https://www.finn.no/realestate/homes/ad.html?finnkode=154059084", "visnings": ["søndag 25. august, kl. 17:00–19:00", "mandag 26. august, kl. 18:00–20:00", "søndag 25. august, kl. 17:00–18:00", "mandag 26. august, kl. 18:00–19:00"]}, {"details": {"address": "Wilses gate 8A, Oslo, Grünerløkka - Sofienberg", "area": "88 m²", "geocode": {"lng": 10.7487612, "lat": 59.91817159999999}, "text": "Fredensborg - stor og attraktiv 3-roms leilighet med fantastisk beliggenhet.", "price": "5 225 000 kr"}, "link": "https://www.finn.no/realestate/homes/ad.html?finnkode=152670531", "visnings": ["søndag 11. august, kl. 15:00–16:00", "mandag 12. august, kl. 18:30–19:30", "mandag 19. august, kl. 17:00–18:00"]}, {"details": {"address": "Øvre Smestadvei 37 B, Oslo, Røa", "area": "190 m²", "geocode": {"lng": 10.6663599, "lat": 59.9460129}, "text": "Vestre Holmen / Makrellbekken - Lekkert og nyoppført hus over 4 etasjer | Moderne og høy kvalitet | Solrik hage | Dobbelgarasje | Barnevennlig område", "price": "13 900 000 kr"}, "link": "https://www.finn.no/realestate/homes/ad.html?finnkode=145255040", "visnings": ["torsdag 15. august, kl. 1700–1800", "søndag 18. august, kl. 1200–1300"]}, {"details": {"address": "Christian Michelsens gate 28, Oslo, Grünerløkka - Sofienberg", "area": "55 m²", "geocode": {"lng": 10.7723392, "lat": 59.9275089}, "text": "RODELØKKA - Nydelig 2,5-roms toppleilighet med flott balkong mot fantastisk bakgård. Utvidet, delikat bad. Kort vei til Løkka.", "price": "4 000 000 kr"}, "link": "https://www.finn.no/realestate/homes/ad.html?finnkode=154069397", "visnings": ["søndag 11. august, kl. 1230–1330", "mandag 12. august, kl. 1630–1730"]}, {"details": {"address": "Holmenkollveien 170B, Oslo, Vinderen", "area": "125 m²", "geocode": {"lng": 10.6727832, "lat": 59.9721844}, "text": "HOLMENKOLLEN - Flott rekkehus med nydelig utsikt - Nordmarka rett utenfor døren - To garasjepl. - Perfekt for den aktive familien!", "price": "8 500 000 kr"}, "link": "https://www.finn.no/realestate/homes/ad.html?finnkode=153165261", "visnings": ["onsdag 14. august, kl. 18:00–19:00"]}, {"details": {"address": "Starveien 12, Oslo, Furuset", "area": "117 m²", "geocode": {"lng": 10.9366324, "lat": 59.94433299999999}, "text": "Høybråten - Romslig 4-roms med 2 bad, garasjeplass og vestvendt terrasse. Jokerbutikk i nabobygget og kort vei til tog/buss.", "price": "3 600 000 kr"}, "link": "https://www.finn.no/realestate/homes/ad.html?finnkode=154068760", "visnings": ["onsdag 14. august, kl. 1730–1830"]}, {"details": {"address": "Markveien 30B, Oslo, Grünerløkka - Sofienberg", "area": "51 m²", "geocode": {"lng": 10.7578641, "lat": 59.9240131}, "text": "BESTE GRÜNERLØKKA -Flott 3-roms med svært god beliggenhet -Ildsted -God planløsning -2 soverom -IN-ordning -Ingen dok.av", "price": "3 590 000 kr"}, "link": "https://www.finn.no/realestate/homes/ad.html?finnkode=153110941", "visnings": ["søndag 11. august, kl. 13:00–14:00", "mandag 12. august, kl. 18:00–19:00"]}, {"details": {"address": "Freserveien 15, Oslo, Gamle Oslo", "area": "52 m²", "geocode": {"lng": 10.7871137, "lat": 59.9028721}, "text": "Kværnerbyen - Pen og moderne 2-roms leilighet med balkong - Bygg fra 2018 - Fyring og varmtvann inkl.", "price": "1 990 000 kr"}, "link": "https://www.finn.no/realestate/homes/ad.html?finnkode=154067540", "visnings": ["tirsdag 13. august, kl. 1800–1900"]}, {"details": {"address": "Niels Juels gate 4 B, Oslo, Bygdøy - Frogner", "area": "122 m²", "geocode": {"lng": 10.708875, "lat": 59.9118239}, "text": "SKILLEBEKK / FROGNER - Tiltalende 5-roms toppleilighet med balkong & takterrasse - Peis - Flott utsikt - Nytt bad - Sol fra morgen til kveld!", "price": "10 000 000 kr"}, "link": "https://www.finn.no/realestate/homes/ad.html?finnkode=149540073", "visnings": ["søndag 11. august, kl. 1430–1530", "tirsdag 13. august, kl. 1800–1900", "mandag 19. august, kl. 1700–1800"]}, {"details": {"address": "Beverveien 4, Oslo, Bjerke", "area": "85 m²", "geocode": {"lng": 10.845892, "lat": 59.9435165}, "text": "Veitvet - Lys og pen 3(4)-romsleilighet over 2 plan - Balkong med flott utsikt og gode solforhold - Meget barnevennlig", "price": "2 900 000 kr"}, "link": "https://www.finn.no/realestate/homes/ad.html?finnkode=150007367", "visnings": ["onsdag 14. august, kl. 1730–1830", "torsdag 22. august, kl. 1700–1800"]}, {"details": {"address": "Haslekroken 7 B, Oslo, Helsfyr - Sinsen", "area": "81 m²", "geocode": {"lng": 10.7922446, "lat": 59.92310239999999}, "text": "Hasle - Gjennomgående 4-roms med solrik sørvestvendt balkong - Utsyn over grønne arealer - Barnevennelig - Oppussingsbehov", "price": "4 500 000 kr"}, "link": "https://www.finn.no/realestate/homes/ad.html?finnkode=150332169", "visnings": ["søndag 11. august, kl. 15:00–16:00", "tirsdag 13. august, kl. 17:00–18:00"]}, {"details": {"address": "Helgesens gate 12C, Oslo, Grünerløkka - Sofienberg", "area": "55 m²", "geocode": {"lng": 10.75793, "lat": 59.92467709999999}, "text": "Sentralt på Grünerløkka - Meget attraktiv, lys og romslig 2-roms eierleilighet m/god takhøyde! V.vann inkl. Utleiemulighet. Bør sees!", "price": "3 600 000 kr"}, "link": "https://www.finn.no/realestate/homes/ad.html?finnkode=152066849", "visnings": ["søndag 11. august, kl. 13:00–14:00", "tirsdag 13. august, kl. 16:00–17:00"]}, {"details": {"address": "Sandakerveien 75, Oslo, Sagene - Torshov", "area": "34 m²", "geocode": {"lng": 10.7706019, "lat": 59.94211839999999}, "text": "Sandaker / Nydalen - Lekker, oppusset 2-r med høy standard og effektiv planløsning. V.vendt balkong med gode solforhold! V.vann & fyring ink.", "price": "3 250 000 kr"}, "link": "https://www.finn.no/realestate/homes/ad.html?finnkode=153632823", "visnings": ["søndag 11. august, kl. 14:00–15:00", "tirsdag 13. august, kl. 17:00–18:00"]}, {"details": {"address": "Blindernveien 2, Oslo, St.Hanshaugen - Ullevål", "area": "76 m²", "geocode": {"lng": 10.7264462, "lat": 59.93500109999999}, "text": "Marienlyst - Lys og hyggelig 4-roms selveier hjørneleilighet med balkong - Utsikt - Modernisering - Parkering* - Heis", "price": "6 050 000 kr"}, "link": "https://www.finn.no/realestate/homes/ad.html?finnkode=148708181", "visnings": ["søndag 11. august, kl. 1300–1400"]}, {"details": {"address": "Galgeberg 3L, Oslo, Gamle Oslo", "area": "35 m²", "geocode": {"lng": 10.780195, "lat": 59.90799759999999}, "text": "GALGEBERG - Lys og sjarmerende 1-roms toppleilighet med originale tregulv. Flott utsikt! Lave felleskostnader med fyring og vv inkl.", "price": "2 850 000 kr"}, "link": "https://www.finn.no/realestate/homes/ad.html?finnkode=153174435", "visnings": ["søndag 11. august, kl. 1300–1400"]}, {"details": {"address": "Måltrostveien 24B, Oslo, Vinderen", "area": "207 m²", "geocode": {"lng": 10.6541119, "lat": 59.963414}, "text": "HOLMENKOLLEN - Eventyrlig villa på høydedrag med praktfull ustikt - Solrik og skjermet tomt på 2 mål - Bra 313 - 2 garasjer - Blindvei", "price": "19 500 000 kr"}, "link": "https://www.finn.no/realestate/homes/ad.html?finnkode=148996055", "visnings": ["søndag 11. august, kl. 1430–1530"]}, {"details": {"address": "Hegermanns gate 14 A, Oslo, Sagene - Torshov", "area": "87 m²", "geocode": {"lng": 10.7671523, "lat": 59.93488619999999}, "text": "TORSHOV KV. VIII - Flott loftsleilighet over 3 plan i populære \"Frankrikegården\" - Peisovn - Idyllisk gårdsrom! - Ettertraktet beliggenhet", "price": "6 200 000 kr"}, "link": "https://www.finn.no/realestate/homes/ad.html?finnkode=153830666", "visnings": ["torsdag 08. august, kl. 1700–1800", "søndag 11. august, kl. 1345–1445"]}, {"details": {"address": "Traverveien 34, Oslo, Grefsen - Kjelsås", "area": "67 m²", "geocode": {"lng": 10.802911, "lat": 59.9424236}, "text": "Disen/Årvoll - Bli inspirert - skap ditt drømmehjem! 3-r toppleil. m/solrik balkong og bad pusset opp av brl. Muligh. park.plass/elbil*", "price": "3 600 000 kr"}, "link": "https://www.finn.no/realestate/homes/ad.html?finnkode=152382478", "visnings": ["søndag 11. august, kl. 15:00–16:00", "onsdag 14. august, kl. 18:00–19:00"]}, {"details": {"address": "SKULLERUDVEIEN 87, Oslo, Bøler", "area": "104 m²", "geocode": {"lng": 10.8370878, "lat": 59.8651679}, "text": "SKULLERUD - Lekker og unik 5-roms terrasseleilighet i 1. etg (3-roms + 2-roms) - 2 terrasser - Garasjeplass - Trappefri adkomst", "price": "5 390 000 kr"}, "link": "https://www.finn.no/realestate/homes/ad.html?finnkode=155359083", "visnings": ["mandag 26. august, kl. 1730–1830"]}, {"details": {"address": "Lille Huseby vei 19, Oslo, Ullern", "area": "199 m²", "geocode": {"lng": 10.6715143, "lat": 59.93262230000001}, "text": "ULLERN - Hyggelig enderekkehus med oppussingsbehov og stor solrik tomt. Dobbelgarasje og god parkeringsplass.", "price": "8 750 000 kr"}, "link": "https://www.finn.no/realestate/homes/ad.html?finnkode=149137119", "visnings": ["søndag 25. august, kl. 16:00–17:00", "mandag 26. august, kl. 17:00–18:00"]}, {"details": {"address": "Lilloseterveien 13a, Oslo, Grorud", "area": "180 m²", "geocode": {"lng": 10.8687453, "lat": 59.9591604}, "text": "AMMERUD - Meget velholdt familiebolig med 3 bad, 4 soverom, flotte uterom og garasje. Solrik utsiktstomt. Nær marka og T-bane.", "price": "10 800 000 kr"}, "link": "https://www.finn.no/realestate/homes/ad.html?finnkode=147534883", "visnings": ["tirsdag 27. august, kl. 1800–1900"]}, {"details": {"address": "Jens Bjelkes gate 18B, Oslo, Grünerløkka - Sofienberg", "area": "64 m²", "geocode": {"lng": 10.7659612, "lat": 59.9180043}, "text": "Idyll i Gråbeinskvartalet! - Klassisk drømmeleilighet med solrik balkong mot en av byens vakreste bakgårder!", "price": "4 200 000 kr"}, "link": "https://www.finn.no/realestate/homes/ad.html?finnkode=155072206", "visnings": ["mandag 26. august, kl. 17:30–18:30"]}, {"details": {"address": "Finnhaugveien 38, Oslo, Røa", "area": "121 m²", "geocode": {"lng": 10.6421067, "lat": 59.9462917}, "text": "RØA - Særdeles attraktiv og lys tomannsbolig- Barnevennlig- Stor og solrik hage- Garasje/p-plass- 2 bad- Peis- Sentralt på Røa", "price": "5 990 000 kr"}, "link": "https://www.finn.no/realestate/homes/ad.html?finnkode=155065494", "visnings": ["søndag 25. august, kl. 12:00–13:00", "tirsdag 27. august, kl. 17:00–18:00"]}, {"details": {"address": "General Birchs gate 34, Oslo, St.Hanshaugen - Ullevål", "area": "93 m²", "geocode": {"lng": 10.7408859, "lat": 59.93208809999999}, "text": "Lindern / Valleløkka - Klassisk og nyoppusset 4-roms leilighet i 2.etg. Sentral og meget populær beliggenhet med nærhet til alt av fasiliteter", "price": "7 990 000 kr"}, "link": "https://www.finn.no/realestate/homes/ad.html?finnkode=148267295", "visnings": ["søndag 25. august, kl. 14:00–15:00", "mandag 26. august, kl. 17:30–18:30"]}, {"details": {"address": "Ringgata 1A, Oslo, Gamle Oslo", "area": "58 m²", "geocode": {"lng": 10.7746745, "lat": 59.9151366}, "text": "#TØYEN - Delikat og pen 2-roms hjørneleilighet øverst i bygget | Gjennomgående løsning | Solrik balkong og super utsikt | Peis", "price": "3 650 000 kr"}, "link": "https://www.finn.no/realestate/homes/ad.html?finnkode=155398558", "visnings": ["søndag 25. august, kl. 1500–1600", "mandag 26. august, kl. 1700–1800"]}, {"details": {"address": "Trondheimsveien 35C, Oslo, Grünerløkka - Sofienberg", "area": "53 m²", "geocode": {"lng": 10.7696198, "lat": 59.92101959999999}, "text": "Grünerløkka - Lekker 3-roms toppleilighet over to plan fra 2006 - Gulvareal ca. 60m² - Bygård renovert 2006 - Ingen forkjøp/dok.avgift", "price": "3 950 000 kr"}, "link": "https://www.finn.no/realestate/homes/ad.html?finnkode=155392889", "visnings": ["søndag 25. august, kl. 14:00–15:00", "mandag 26. august, kl. 17:00–18:00"]}, {"details": {"address": "Bøkkerveien 32B, Oslo, Helsfyr - Sinsen", "area": "96 m²", "geocode": {"lng": 10.7927034, "lat": 59.9276449}, "text": "Krydderhagen/Hasle - BESTE Krydderhagen - Meget pen og romslig 4-roms fra 2016 med 2 balkonger, 2 baderom, heis og mul. for kjøp av garasjep.", "price": "6 700 000 kr"}, "link": "https://www.finn.no/realestate/homes/ad.html?finnkode=155397013", "visnings": ["søndag 25. august, kl. 12:00–13:00", "mandag 26. august, kl. 17:00–18:00"]}, {"details": {"address": "Claus Riis' gate 7A, Oslo, Sagene - Torshov", "area": "37 m²", "geocode": {"lng": 10.7523775, "lat": 59.9309127}, "text": "IDYLLISK BELIGGENHET VED ILAPARKEN - Flott hjørneleilighet beliggende i rolige omgivelser med herlig utsikt - God standard med bad og kjøkken fra 2012 - Peis", "price": "3 300 000 kr"}, "link": "https://www.finn.no/realestate/homes/ad.html?finnkode=154907222", "visnings": ["søndag 25. august, kl. 15:00–16:00", "tirsdag 27. august, kl. 17:00–18:00"]}, {"details": {"address": "Oscars gate 79, Oslo, Bygdøy - Frogner", "area": "178 m²", "geocode": {"lng": 10.7173038, "lat": 59.9161628}, "text": "Frogner - Klassisk og meget romslig selveierleilighet med oppussingsbehov - Balkong, stukkatur, rosett, ildsteder og god takhøyde", "price": "12 800 000 kr"}, "link": "https://www.finn.no/realestate/homes/ad.html?finnkode=147943557", "visnings": ["søndag 25. august, kl. 1300–1400", "mandag 26. august, kl. 1700"]}, {"details": {"address": "Konows gate 8 A, Oslo, Gamle Oslo", "area": "33 m²", "geocode": {"lng": 10.7724918, "lat": 59.9025532}, "text": "#GAMLEBYEN - 2-roms perfekt for førstegangskjøpern med god planløsning I Planlagt markterrasse  I IN-Ordning I Ingen forkjøpsrett", "price": "2 850 000 kr"}, "link": "https://www.finn.no/realestate/homes/ad.html?finnkode=155394111", "visnings": ["søndag 25. august, kl. 1430–1530", "tirsdag 27. august, kl. 1700–1800"]}, {"details": {"address": "Sinsenveien 7, Oslo, Helsfyr - Sinsen", "area": "60 m²", "geocode": {"lng": 10.7803169, "lat": 59.92872689999999}, "text": "SINSEN 3-ROMS 2(3)-roms andelsleilighet m/ separat utleiedel. Felles takterrasse med sjøutsikt!", "price": "3 700 000 kr"}, "link": "https://www.finn.no/realestate/homes/ad.html?finnkode=152749108", "visnings": ["søndag 25. august, kl. 1400–1500"]}, {"details": {"address": "Nedre Kalbakkvei 7, Oslo, Grorud", "area": "63 m²", "geocode": {"lng": 10.8640189, "lat": 59.9489062}, "text": "Kalbakken - Gjennomgående og pen 3-roms toppleilighet | Meget god planløsning | Nordvestvendt balkong | Flotte rekreasjonsmuligheter", "price": "3 080 000 kr"}, "link": "https://www.finn.no/realestate/homes/ad.html?finnkode=152786906", "visnings": ["søndag 25. august, kl. 1400–1500", "mandag 26. august, kl. 1730–1830"]}, {"details": {"address": "Nebbejordet 11, Oslo, Søndre Nordstrand", "area": "79 m²", "geocode": {"lng": 10.8118457, "lat": 59.84398290000001}, "text": "Pen 4-roms andelsleilighet - 2 etasje- Barnevennlig - God planløsning - Gode solforhold - Kort vei til off kommunikasjon", "price": "3 200 000 kr"}, "link": "https://www.finn.no/realestate/homes/ad.html?finnkode=148628641", "visnings": ["søndag 25. august, kl. 14:45–15:45"]}, {"details": {"address": "St. Jørgens vei 41, Oslo, Helsfyr - Sinsen", "area": "64 m²", "geocode": {"lng": 10.7969187, "lat": 59.9215523}, "text": "Hasle/Hovin - Lekker og gjennomgående 3-roms leilighet beliggende i 3.etg med nyere kjøkken | Peis | Solrik balkong med fin utsikt!", "price": "4 300 000 kr"}, "link": "https://www.finn.no/realestate/homes/ad.html?finnkode=155391502", "visnings": ["søndag 25. august, kl. 1200–1300", "mandag 26. august, kl. 1700–1800"]}, {"details": {"address": "Skansen Terrasse 22, Oslo, Furuset", "area": "84 m²", "geocode": {"lng": 10.9099555, "lat": 59.93671939999999}, "text": "Ellingsrud Vest - Skansen terrasse - Innflytningsklar, 84 kvm 3 roms endeleilighet i toppetasjen med flott utsyn. Heis. 11,5 kvm solrik balkong. Garasjeplass", "price": "3 080 000 kr"}, "link": "https://www.finn.no/realestate/homes/ad.html?finnkode=155393034", "visnings": ["søndag 25. august, kl. 1200–1300", "mandag 26. august, kl. 1700–1800"]}, {"details": {"address": "Trollfaret 6A, Oslo, Grefsen - Kjelsås", "area": "192 m²", "geocode": {"lng": 10.7989336, "lat": 59.9616463}, "text": "Grefsenåsen - Grefsen - Unik toppleilighet på 192 m²  P-rom med panoramautsikt - Store terrasser på 55 m² og 9 m² - Garasje", "price": "13 500 000 kr"}, "link": "https://www.finn.no/realestate/homes/ad.html?finnkode=144275391", "visnings": ["søndag 25. august, kl. 12:00–13:00", "mandag 26. august, kl. 17:00–18:00"]}, {"details": {"address": "Schweigaards gate 63, Oslo, Gamle Oslo", "area": "54 m²", "geocode": {"lng": 10.7709792, "lat": 59.9077755}, "text": "GAMLEBYEN - Stor og lys 2-roms svært sentralt beliggende i Gamlebyen. Solrik balkong. Vv., TV og internett inkl. Heis. IN-ordning.", "price": "3 200 000 kr"}, "link": "https://www.finn.no/realestate/homes/ad.html?finnkode=155019289", "visnings": ["søndag 25. august, kl. 15:15–16:15", "tirsdag 27. august, kl. 16:30–17:30"]}, {"details": {"address": "Tyristubbveien 63, Oslo, Østensjø", "area": "116 m²", "geocode": {"lng": 10.8553676, "lat": 59.89496029999999}, "text": "OPPSAL - Innholdsrikt rekkehus over tre etasjer med to flotte, solfylte uteplasser -  Kjøkkeninnredning fra 2018 - P-plass!", "price": "6 500 000 kr"}, "link": "https://www.finn.no/realestate/homes/ad.html?finnkode=151911669", "visnings": ["søndag 25. august, kl. 1300–1400", "mandag 26. august, kl. 1630–1730"]}, {"details": {"address": "Waldemars hage 4, Oslo, Grünerløkka - Sofienberg", "area": "45 m²", "geocode": {"lng": 10.752647, "lat": 59.92701539999999}, "text": "#WALDEMARS HAGE - Attraktiv 2-roms i 4.etg med heis | Balkong mot Akerselva | Felles takterrasse | VV & fyring inkl. i lave fellesutgifter", "price": "4 250 000 kr"}, "link": "https://www.finn.no/realestate/homes/ad.html?finnkode=155391417", "visnings": ["søndag 25. august, kl. 1300–1400", "mandag 26. august, kl. 1700–1800"]}, {"details": {"address": "Karenslyst allé 3 A, Oslo, Ullern", "area": "107 m²", "geocode": {"lng": 10.6868947, "lat": 59.9191328}, "text": "SKØYEN/SJØLYST - Stor, lys og gjgående 3(4)R selveier i 4. etg. med 2 terrasser. 2 bad. Gasspeis. Heis. Garasjeplass.", "price": "8 200 000 kr"}, "link": "https://www.finn.no/realestate/homes/ad.html?finnkode=154264734", "visnings": ["søndag 25. august, kl. 13:30–14:30", "tirsdag 27. august, kl. 16:00–17:00"]}, {"details": {"address": "Nylænde 17, Oslo, Lambertseter", "area": "64 m²", "geocode": {"lng": 10.8166701, "lat": 59.8775304}, "text": "Supersentralt på Lambertseter - Usjenert og gjennomgående 3-roms i blindvei - Solrik balkong og utsikt", "price": "3 300 000 kr"}, "link": "https://www.finn.no/realestate/homes/ad.html?finnkode=155063727", "visnings": ["søndag 25. august, kl. 15:00–16:00"]}, {"details": {"address": "Stensgata 24 A, Oslo, St.Hanshaugen - Ullevål", "area": "106 m²", "geocode": {"lng": 10.7320249, "lat": 59.93105480000001}, "text": "Sjeldent gjennomført 4-roms med sydvendt veranda og frodig beliggenhet mot parken. Omfattende oppgradert i 2017/2018.", "price": "9 850 000 kr"}, "link": "https://www.finn.no/realestate/homes/ad.html?finnkode=155390727", "visnings": ["søndag 25. august, kl. 1500–1600", "mandag 26. august, kl. 1715–1815"]}, {"details": {"address": "Sognsveien 149, Oslo, Sogn", "area": "242 m²", "geocode": {"lng": 10.7338395, "lat": 59.95984230000001}, "text": "Nordberg - Praktfull funkiseiendom på stor solrik tomt - atelier", "price": "22 000 000 kr"}, "link": "https://www.finn.no/realestate/homes/ad.html?finnkode=155390325", "visnings": ["søndag 25. august, kl. 1330–1430", "mandag 26. august, kl. 1830–1930"]}, {"details": {"address": "Innspurten 10A, Oslo, Helsfyr - Sinsen", "area": "80 m²", "geocode": {"lng": 10.8028178, "lat": 59.91678340000001}, "text": "VALLEHOVIN / HOVINENGA - Flott, ny (august 2019) og ubebodd 4-roms hjørneleilighet med to store balkonger - Garasjeplass - Heis - 2. etg.", "price": "6 150 000 kr"}, "link": "https://www.finn.no/realestate/homes/ad.html?finnkode=154991102", "visnings": ["søndag 25. august, kl. 15:00–16:00", "tirsdag 27. august, kl. 17:00–18:00"]}, {"details": {"address": "Rosenhoffgata 12 A, Oslo, Grünerløkka - Sofienberg", "area": "87 m²", "geocode": {"lng": 10.7749339, "lat": 59.92934330000001}, "text": "ROSENHOFF - Lys og usjenert 3-roms toppleilighet med fantastisk utsikt - Solrik takterrasse - Moderniseringsbehov -Flott beliggenhet", "price": "6 200 000 kr"}, "link": "https://www.finn.no/realestate/homes/ad.html?finnkode=155389943", "visnings": ["torsdag 22. august, kl. 1700–1800", "søndag 25. august, kl. 1200–1300"]}, {"details": {"address": "Eugenies gate 8B, Oslo, St.Hanshaugen - Ullevål", "area": "75 m²", "geocode": {"lng": 10.7335233, "lat": 59.9276236}, "text": "Bislett / Bolteløkka - Gjennomgående, lys og delikat 3(4)-roms aksjeleilighet. Ettertraktet beliggenhet. Peis. Ingen dok.avg. Fyring/vv. inkl.", "price": "5 390 000 kr"}, "link": "https://www.finn.no/realestate/homes/ad.html?finnkode=151103771", "visnings": ["søndag 25. august, kl. 13:30–15:15"]}, {"details": {"address": "Bergrådveien 19, Oslo, Sogn", "area": "205 m²", "geocode": {"lng": 10.7588112, "lat": 59.9542915}, "text": "TÅSEN/KORSVOLL - Lekker halvpart av tomannsbolig over to plan - Moderne kjøkken - Fem soverom - Garasje - Solrik hage - Rammetillattelse*", "price": "13 500 000 kr"}, "link": "https://www.finn.no/realestate/homes/ad.html?finnkode=155092187", "visnings": ["søndag 25. august, kl. 13:30–14:30", "mandag 26. august, kl. 19:00–20:00"]}, {"details": {"address": "Bjerregaards gate 22A, Oslo, St.Hanshaugen - Ullevål", "area": "57 m²", "geocode": {"lng": 10.7430415, "lat": 59.9242271}, "text": "ST. HANSHAUGEN - Elegant, klassisk 3-roms med nyere bad og kjøkken - Balkong - Rosett og stukkatur - Felles takterrasse - Nydelig bakgård", "price": "4 990 000 kr"}, "link": "https://www.finn.no/realestate/homes/ad.html?finnkode=154979442", "visnings": ["søndag 25. august, kl. 12:00–13:00", "mandag 26. august, kl. 17:00–18:00"]}, {"details": {"address": "Bestumveien 2F, Oslo, Ullern", "area": "79 m²", "geocode": {"lng": 10.6652982, "lat": 59.9189025}, "text": "IDYLLISKE SKØYEN/BESTUM - Herlig bolig med rekkehusfølelse - Solrik terrasse på over 9 kvm - Store vindusflater - Vakkert utsyn mot grøntarealer", "price": "4 740 000 kr"}, "link": "https://www.finn.no/realestate/homes/ad.html?finnkode=152596469", "visnings": ["lørdag 24. august, kl. 14:00–15:00"]}, {"details": {"address": "ETTERSTADSLETTA 9 A, Oslo, Helsfyr - Sinsen", "area": "79 m²", "geocode": {"lng": 10.7976494, "lat": 59.91040830000001}, "text": "ETTERSTAD - Sjelden anledning! Meget attraktiv 4-roms i høy 1. etasje med solrik balkong  og Garasje* - Sentralt og barnevennlig", "price": "4 850 000 kr"}, "link": "https://www.finn.no/realestate/homes/ad.html?finnkode=155388252", "visnings": ["søndag 25. august, kl. 1200–1300"]}, {"details": {"address": "Heimdalsgata 42, Oslo, Gamle Oslo", "area": "60 m²", "geocode": {"lng": 10.7676076, "lat": 59.9142085}, "text": "GRØNLAND V/BOTANISK HAGE - Sjarmerende og lys 3-roms med klassiske detaljer - God takhøyde - Peis - Moderne kjøkken - Hyggelig bakgård", "price": "3 600 000 kr"}, "link": "https://www.finn.no/realestate/homes/ad.html?finnkode=147416287", "visnings": ["mandag 26. august, kl. 1700–1800"]}, {"details": {"address": "Gjennomfaret 40A, Oslo, Sogn", "area": "62 m²", "geocode": {"lng": 10.7496351, "lat": 59.95217049999999}, "text": "TÅSEN - 3- roms selveierleilighet i 2 etasje med  solrik balkong.", "price": "4 400 000 kr"}, "link": "https://www.finn.no/realestate/homes/ad.html?finnkode=155068770", "visnings": ["søndag 25. august, kl. 12:30–13:30", "mandag 26. august, kl. 17:00–18:00"]}, {"details": {"address": "Arendalsgata 14, Oslo, Sagene - Torshov", "area": "77 m²", "geocode": {"lng": 10.754394, "lat": 59.93779920000001}, "text": "Sagene - Attraktiv 3-roms toppleilighet over 2 plan, solrik balkong m/flott utsyn, heis, garasjeplass og koselig bakgård", "price": "6 350 000 kr"}, "link": "https://www.finn.no/realestate/homes/ad.html?finnkode=155387143", "visnings": ["søndag 25. august, kl. 1400–1500", "mandag 26. august, kl. 1700–1800"]}, {"details": {"address": "Sinsenterrassen 13, Oslo, Helsfyr - Sinsen", "area": "53 m²", "geocode": {"lng": 10.7810149, "lat": 59.9338025}, "text": "Sinsen - 3- roms oppussingsobjekt med praktisk planløsning i 2. etasje- Selveier- VV og fyring ink- Parkering etter liste", "price": "3 250 000 kr"}, "link": "https://www.finn.no/realestate/homes/ad.html?finnkode=154972526", "visnings": ["mandag 26. august, kl. 18:30–19:30", "tirsdag 27. august, kl. 16:30–17:30"]}, {"details": {"address": "Behrens` gate 6, Oslo, Bygdøy - Frogner", "area": "77 m²", "geocode": {"lng": 10.715711, "lat": 59.9168483}, "text": "FROGNER - Lekker 3(4)-roms loftsleilighet over 2 plan med takterrasse - Etterspurt beliggenhet i en fantastisk bygård", "price": "6 750 000 kr"}, "link": "https://www.finn.no/realestate/homes/ad.html?finnkode=155386441", "visnings": ["søndag 25. august, kl. 1200–1300", "mandag 26. august, kl. 1700–1800"]}, {"details": {"address": "Holmenkollveien 90, Oslo, Vinderen", "area": "177 m²", "geocode": {"lng": 10.6681717, "lat": 59.95683620000001}, "text": "Holmenkollen - HOLMENKOLLEN - Ny bolig - Påkostet halvpart av tomannsbolig m/ høy standard og imponerende utsikt - Underjordisk garasje", "price": "14 990 000 kr"}, "link": "https://www.finn.no/realestate/homes/ad.html?finnkode=155386254", "visnings": ["søndag 25. august, kl. 16:00–17:00", "tirsdag 27. august, kl. 17:00–18:00"]}, {"details": {"address": "Parkveien 64, Oslo, Bygdøy - Frogner", "area": "40 m²", "geocode": {"lng": 10.7216949, "lat": 59.91439310000001}, "text": "Vika/Solli plass - P64 - Delikat og praktisk 2-roms selveier i urbane P64 - Supersentralt og attraktivt beliggende - V.v. bredbånd og fyring ink.", "price": "3 490 000 kr"}, "link": "https://www.finn.no/realestate/homes/ad.html?finnkode=153325765", "visnings": ["søndag 25. august, kl. 1600–1700"]}, {"details": {"address": "Vallefaret 20, Oslo, Helsfyr - Sinsen", "area": "52 m²", "geocode": {"lng": 10.8018887, "lat": 59.92006539999999}, "text": "VALLE HOVIN - Lekker 2-roms hjørneleilighet | Fantastisk beliggenhet. Utsikt over Hovindammen | Balkong på 7 kvm | Peisovn | Bør sees!", "price": "3 550 000 kr"}, "link": "https://www.finn.no/realestate/homes/ad.html?finnkode=155384750", "visnings": ["søndag 25. august, kl. 1400–1500", "mandag 26. august, kl. 1730–1830"]}, {"details": {"address": "Fossveien 16 C, Oslo, Grünerløkka - Sofienberg", "area": "30 m²", "geocode": {"lng": 10.7549339, "lat": 59.9243773}, "text": "BESTE GRÜNERLØKKA - Klassisk og sjarmerende studioleilighet på en svært attraktiv adresse. Ingen dokumentavgift og lave felleskostnader.", "price": "2 935 000 kr"}, "link": "https://www.finn.no/realestate/homes/ad.html?finnkode=152790825", "visnings": ["søndag 25. august, kl. 1300–1400", "mandag 26. august, kl. 1700–1800"]}, {"details": {"address": "Fernanda Nissens gate 4A, Oslo, Sagene - Torshov", "area": "45 m²", "geocode": {"lng": 10.7694579, "lat": 59.94611800000001}, "text": "NYDALEN - Meget attraktiv, lys og pen 2-roms i 6. etg m/heis og stor solrik balkong. Ny 2015. Lave fellesutg inkl v.v/fyr-Garasje*", "price": "4 300 000 kr"}, "link": "https://www.finn.no/realestate/homes/ad.html?finnkode=147525649", "visnings": ["søndag 25. august, kl. 13:30–14:30", "mandag 26. august, kl. 18:45–19:45"]}, {"details": {"address": "Freserveien 45, Oslo, Gamle Oslo", "area": "106 m²", "geocode": {"lng": 10.7893303, "lat": 59.9027749}, "text": "TOPPEN AV KVÆRNERBYEN - Fantastisk 5-roms selveierleilighet - Hybeldel - Garasjeplass - To balkonger med flott utsikt - Sjelden mulighet", "price": "8 500 000 kr"}, "link": "https://www.finn.no/realestate/homes/ad.html?finnkode=154998982", "visnings": ["søndag 25. august, kl. 14:00–15:00", "mandag 26. august, kl. 17:00–18:00"]}, {"details": {"address": "Sandakerveien 104, Oslo, Sagene - Torshov", "area": "40 m²", "geocode": {"lng": 10.7713447, "lat": 59.9451967}, "text": "LILLO GÅRD I NYDALEN - Nyoppført og lekker 2-roms selveier (2019) med vestvendt balkong - Lave fellesutgifter - Felles takterrasser - Sentralt!", "price": "4 200 000 kr"}, "link": "https://www.finn.no/realestate/homes/ad.html?finnkode=152829471", "visnings": ["søndag 25. august, kl. 1300–1400"]}, {"details": {"address": "Vogts gate 55A, Oslo, Sagene - Torshov", "area": "42 m²", "geocode": {"lng": 10.765584, "lat": 59.9352404}, "text": "TORSHOV - Svært arealeffektiv og pen 3-roms. Gulvflate på 53,5 kvm. Usjenert  balkong. Ingen forkjøpsrett. IN-ordn.", "price": "2 250 000 kr"}, "link": "https://www.finn.no/realestate/homes/ad.html?finnkode=153199465", "visnings": ["søndag 25. august, kl. 13:00–14:00", "mandag 26. august, kl. 16:30–17:30"]}, {"details": {"address": "Behrens' gate 8A, Oslo, Bygdøy - Frogner", "area": "210 m²", "geocode": {"lng": 10.7152831, "lat": 59.91696169999999}, "text": "ATTRAKTIVT PÅ FROGNER - Lys og lekker klassisk hjørneleil.  på 210 kvm. Oppusset 2017. Praktikantdel m/egen inngang. Balkong- 3 peiser- 3 bad", "price": "18 500 000 kr"}, "link": "https://www.finn.no/realestate/homes/ad.html?finnkode=154909087", "visnings": ["søndag 25. august, kl. 15:30–16:30", "mandag 26. august, kl. 17:00–18:00"]}, {"details": {"address": "Torjusbakken 20 B, Oslo, Røa", "area": "139 m²", "geocode": {"lng": 10.6611372, "lat": 59.936615}, "text": "Montebello - Lys og luftig terrasseleilighet | Direkte adkomst fra inngangsplan | Stor sydvendt terrasse m/ fjordutsikt", "price": "9 900 000 kr"}, "link": "https://www.finn.no/realestate/homes/ad.html?finnkode=145952481", "visnings": ["søndag 25. august, kl. 1330–1430", "tirsdag 27. august, kl. 1800–1900"]}]}