{"links": [{"details": {"text": "St. Hanshaugen - Lys 2-roms selveierleilighet i 4.etg. med heis og god planløsning - VV. inkludert - Lave fellekostn.", "area": "35 m²", "geocode": {"lat": 59.92146, "lng": 10.7381131}, "address": "Stensberggata 21, Oslo, St.Hanshaugen - Ullevål", "price": "3 190 000 kr"}, "link": "https://www.finn.no/realestate/homes/ad.html?finnkode=153434427", "visnings": ["onsdag 07. august, kl. 17:00–18:00"]}, {"details": {"text": "Ensjø/Hasle - Tiltalende 3-romsleilighet med koselig uteplass, arealeffektiv planløsning og sentral beliggenhet.", "area": "52 m²", "geocode": {"lat": 59.91953149999999, "lng": 10.7936108}, "address": "Grenseveien 61B, Oslo, Helsfyr - Sinsen", "price": "4 000 000 kr"}, "link": "https://www.finn.no/realestate/homes/ad.html?finnkode=154138652", "visnings": ["søndag 11. august, kl. 1530–1630", "tirsdag 13. august, kl. 1700–1800"]}, {"details": {"text": "#MAJORSTUEN - Super fin nyoppusset 2 roms leilighet på beste Majorstuen | Arealeffektiv | Moderne kjøkken og bad fra 2019 | Fyring&V.V", "area": "36 m²", "geocode": {"lat": 59.9292422, "lng": 10.7199505}, "address": "Jacob Aalls gate 23B, Oslo, Uranienborg - Majorstuen", "price": "3 700 000 kr"}, "link": "https://www.finn.no/realestate/homes/ad.html?finnkode=153465447", "visnings": ["søndag 11. august, kl. 1430–1530", "søndag 25. august, kl. 1500–1600"]}, {"details": {"text": "Uranienborg - Attraktiv 3-R i ærverdig bygård rett bak slottet.  Klassiske detaljer. Nyoppusset bad/wc og kjøkken.", "area": "55 m²", "geocode": {"lat": 59.9195022, "lng": 10.7248784}, "address": "Inkognitogata 4, Oslo, Uranienborg - Majorstuen", "price": "4 850 000 kr"}, "link": "https://www.finn.no/realestate/homes/ad.html?finnkode=153949112", "visnings": ["søndag 11. august, kl. 13:00–14:00", "mandag 12. august, kl. 17:00–18:00"]}, {"details": {"text": "Majorstuen - Sentralt og rolig - Nyere kjøkken og bad - Høy 1 etg. - Flott bakgård - Rett ved T-bane - Ingen. dok. avg.", "area": "52 m²", "geocode": {"lat": 59.9313629, "lng": 10.7179748}, "address": "Hammerstads gate 26, Oslo, Uranienborg - Majorstuen", "price": "4 190 000 kr"}, "link": "https://www.finn.no/realestate/homes/ad.html?finnkode=147552245", "visnings": ["torsdag 15. august, kl. 18:00–19:00", "søndag 18. august, kl. 14:00–15:00"]}, {"details": {"text": "Grefsen/Lillo: Lys 2 (3)-roms m/stor innglasset balkong. Varmt vann og fyring inkl. Rolig beliggenhet", "area": "55 m²", "geocode": {"lat": 59.9523571, "lng": 10.7752826}, "address": "Betzy Kjelsbergsvei 4 A, Oslo, Grefsen - Kjelsås", "price": "3 450 000 kr"}, "link": "https://www.finn.no/realestate/homes/ad.html?finnkode=146207175", "visnings": ["søndag 11. august, kl. 1430–1530", "mandag 12. august, kl. 1730–1830", "mandag 19. august, kl. 1700–1800"]}, {"details": {"text": "Skullerud/Langerud - Innholdsrikt og romslig rekkehus med svært god barnevennlig beliggenhet", "area": "166 m²", "geocode": {"lat": 59.8729349, "lng": 10.8344879}, "address": "Løvsetfaret 56, Oslo, Bøler", "price": "7 200 000 kr"}, "link": "https://www.finn.no/realestate/homes/ad.html?finnkode=154024768", "visnings": ["torsdag 15. august, kl. 17:00–18:00", "søndag 18. august, kl. 15:00–16:00"]}, {"details": {"text": "Godlia - Nyere halvpart av vertkaldelt tomannsbolig med topp standard og meget god beliggenhet", "area": "138 m²", "geocode": {"lat": 59.9085485, "lng": 10.8427131}, "address": "Solåsveien 20 B, Oslo, Østensjø", "price": "10 000 000 kr"}, "link": "https://www.finn.no/realestate/homes/ad.html?finnkode=154079785", "visnings": ["søndag 18. august, kl. 12:00–13:00", "mandag 19. august, kl. 17:00–18:00"]}, {"details": {"text": "Grünerløkka/torshov - Lekker og gjennomgående 2-roms selveier leilighet med sentral beliggenhet. Kort vei til kollektiv transport.", "area": "35 m²", "geocode": {"lat": 59.9309413, "lng": 10.7616362}, "address": "Vogts gate 15, Oslo, Sagene - Torshov", "price": "3 250 000 kr"}, "link": "https://www.finn.no/realestate/homes/ad.html?finnkode=154116775", "visnings": ["søndag 11. august, kl. 12:30–13:30", "mandag 12. august, kl. 16:30–17:30"]}, {"details": {"text": "Lambertseter - Lekker og arealeffektiv 3-roms leilighet med solrik balkong. Sentral beliggenhet. Fyring og varmt vann inkl.", "area": "54 m²", "geocode": {"lat": 59.86564869999999, "lng": 10.8213473}, "address": "Grusveien 8, Oslo, Lambertseter", "price": "3 500 000 kr"}, "link": "https://www.finn.no/realestate/homes/ad.html?finnkode=154059346", "visnings": ["tirsdag 13. august, kl. 18:00–19:00", "tirsdag 20. august, kl. 18:00–19:00"]}, {"details": {"text": "Frogner - Lekker gjennomgående leil m/ usjenert beliggenhet v/den amerikanske ambassadeboligen. Balkong. Heis. Peis. *Parkering", "area": "83 m²", "geocode": {"lat": 59.92019870000001, "lng": 10.699607}, "address": "Hafrsfjordgata 26A, Oslo, Bygdøy - Frogner", "price": "7 950 000 kr"}, "link": "https://www.finn.no/realestate/homes/ad.html?finnkode=151101986", "visnings": ["tirsdag 13. august, kl. 17:00–18:00", "onsdag 14. august, kl. 17:00–18:00", "søndag 25. august, kl. 13:00–14:00"]}, {"details": {"text": "TROSTERUD - Romslig 2-roms andelsleilighet med nordvendt balkong-God planløsning-Utsikt-Kort vei til t-banens linje 2 og marka.", "area": "59 m²", "geocode": {"lat": 59.9256755, "lng": 10.8683839}, "address": "Dr. Dedichens vei 76, Oslo, Hellerud", "price": "2 700 000 kr"}, "link": "https://www.finn.no/realestate/homes/ad.html?finnkode=154062692", "visnings": ["søndag 11. august, kl. 15:00–16:00", "tirsdag 13. august, kl. 17:30–18:30"]}, {"details": {"text": "SAGENE - Svært attraktiv 1-r. m/hemsløsning, separat kjøkken. Bad fra 2012. Felles takterr. Heis. IN-ordning.", "area": "34 m²", "geocode": {"lat": 59.93852690000001, "lng": 10.759018}, "address": "Hammergata 18A, Oslo, Sagene - Torshov", "price": "2 950 000 kr"}, "link": "https://www.finn.no/realestate/homes/ad.html?finnkode=154027070", "visnings": ["søndag 11. august, kl. 12:30–13:30", "tirsdag 13. august, kl. 18:30–19:30"]}, {"details": {"text": "Grønland - 3/4-roms selveierleilighet i loftsetasje med 79 kvm gulvareal. Solrik terrasse og meget sentral beliggenhet. Mod.behov.", "area": "59 m²", "geocode": {"lat": 59.9130671, "lng": 10.765584}, "address": "Norbygata 56A, Oslo, Gamle Oslo", "price": "4 490 000 kr"}, "link": "https://www.finn.no/realestate/homes/ad.html?finnkode=148278244", "visnings": ["mandag 12. august, kl. 1700–1800"]}, {"details": {"text": "Pilestredet Park - Lys 2-roms med attraktiv beliggenhet - Vestvendt balkong på 8,5 m² - Heis - Garasjeplass med elbil lader", "area": "47 m²", "geocode": {"lat": 59.9189342, "lng": 10.737309}, "address": "Pilestredet Park 24, Oslo, St.Hanshaugen - Ullevål", "price": "4 500 000 kr"}, "link": "https://www.finn.no/realestate/homes/ad.html?finnkode=153687265", "visnings": ["tirsdag 13. august, kl. 18:30–19:30", "onsdag 14. august, kl. 17:00–18:00"]}, {"details": {"text": "#UTSIKTSKVARTALET PÅ ENSJØ - Rålekker 3-roms fra 2018 | Stor og solrik balkong med utsikt | Fjernvarme | Heis | 10-års garanti | Mulig garasjeleie*", "area": "57 m²", "geocode": {"lat": 59.91635420000001, "lng": 10.7855905}, "address": "Sigurd Hoels vei 17, Oslo, Gamle Oslo", "price": "4 800 000 kr"}, "link": "https://www.finn.no/realestate/homes/ad.html?finnkode=154112678", "visnings": ["tirsdag 13. august, kl. 1700–1800", "onsdag 14. august, kl. 1800–1900", "søndag 25. august, kl. 1300–1400"]}, {"details": {"text": "LØREN/HASLE - Moderne 4-roms med høy standard og to herlige balkonger - Heis - Ingen dok.avgift - To bad - Mulighet for  garasjeplass", "area": "96 m²", "geocode": {"lat": 59.9275196, "lng": 10.7960537}, "address": "Bøkkerveien 14 C, Oslo, Helsfyr - Sinsen", "price": "3 500 000 kr"}, "link": "https://www.finn.no/realestate/homes/ad.html?finnkode=150343061", "visnings": ["søndag 11. august, kl. 1430–1530"]}, {"details": {"text": "St. Hanshaugen / Bislett - Praktisk og fin 2(3)-roms selveier leilighet, sentral beliggenhet", "area": "53 m²", "geocode": {"lat": 59.93003539999999, "lng": 10.7323335}, "address": "Stensgata 10b, Oslo, St.Hanshaugen - Ullevål", "price": "4 300 000 kr"}, "link": "https://www.finn.no/realestate/homes/ad.html?finnkode=154104558", "visnings": ["søndag 11. august, kl. 1400–1500", "mandag 12. august, kl. 1830–1930"]}, {"details": {"text": "BISLETT v/OSLO MET - Ny og stor (68 BRA) 2-roms selveier med romslig disponibelt rom. Gulvvarme i alle oppholdsrom. Entreprenørgaranti i 5 år", "area": "54 m²", "geocode": {"lat": 59.9223894, "lng": 10.7356757}, "address": "Sofies gate 10, Oslo, St.Hanshaugen - Ullevål", "price": "3 500 000 kr"}, "link": "https://www.finn.no/realestate/homes/ad.html?finnkode=154097848", "visnings": ["søndag 11. august, kl. 1200–1300"]}, {"details": {"text": "GRØNLAND; - Nydelig fabrikkleilighet - Heis - Svalgangsbalkong - Varmtv. inkl - God takhøyde - Gjennomgående - Sentralt", "area": "39 m²", "geocode": {"lat": 59.9116333, "lng": 10.7651761}, "address": "Platous gate 11B, Oslo, Gamle Oslo", "price": "3 100 000 kr"}, "link": "https://www.finn.no/realestate/homes/ad.html?finnkode=154066332", "visnings": ["mandag 12. august, kl. 18:00–19:00", "tirsdag 13. august, kl. 17:30–18:30"]}, {"details": {"text": "#BISLETT/BOLTELØKKA - Innbydende 3-roms med nyere bad & kjøkken | Vv & fyring inkl | Ingen dok.avgift/forkjøpsrett | Attraktiv beliggenhet", "area": "56 m²", "geocode": {"lat": 59.92720319999999, "lng": 10.7328623}, "address": "Wilhelms gate 2 B, Oslo, St.Hanshaugen - Ullevål", "price": "3 900 000 kr"}, "link": "https://www.finn.no/realestate/homes/ad.html?finnkode=154092529", "visnings": ["onsdag 14. august, kl. 1700–1800"]}, {"details": {"text": "Kalbakken - Stilren og delikat 2-roms over to plan med innredet loft | Lekkert kjøkken fra 2016 | Nyere overflater | Lave FG/FK!", "area": "62 m²", "geocode": {"lat": 59.9482601, "lng": 10.8623429}, "address": "Kalbakkfaret 5, Oslo, Grorud", "price": "2 970 000 kr"}, "link": "https://www.finn.no/realestate/homes/ad.html?finnkode=154077855", "visnings": ["søndag 11. august, kl. 14:30–15:30", "tirsdag 13. august, kl. 16:00–17:00"]}, {"details": {"text": "GAMLELINJA | SØNDRE NORDSTRAND - Tomannsbolig - Flott fjordutsikt - Utbygningsmuligheter - Barnevennlig - INGEN DOK.AVGIFT - Må oppleves!", "area": "104 m²", "geocode": {"lat": 59.83880749999999, "lng": 10.7835549}, "address": "Gamlelinja 11 B, Oslo, Søndre Nordstrand", "price": "5 200 000 kr"}, "link": "https://www.finn.no/realestate/homes/ad.html?finnkode=142330863", "visnings": ["søndag 11. august, kl. 1400–1500", "tirsdag 13. august, kl. 1730–1830"]}, {"details": {"text": "TOPPLEILIGHET PÅ BESTE GRÜNERLØKKA -Nyoppført (2019) -V.v takterasse - Høy standard med lekre detaljer -God planløsning!", "area": "39 m²", "geocode": {"lat": 59.9240131, "lng": 10.7578641}, "address": "Markveien 30B, Oslo, Grünerløkka - Sofienberg", "price": "3 890 000 kr"}, "link": "https://www.finn.no/realestate/homes/ad.html?finnkode=154065492", "visnings": ["søndag 11. august, kl. 14:00–15:00", "mandag 12. august, kl. 18:30–19:30"]}, {"details": {"text": "Løren - 3-roms med sydvendt markterrasse på 16 m². Varmtvann inkl. Passer utmerket som førstegangskjøp eller utleie.", "area": "57 m²", "geocode": {"lat": 59.9362172, "lng": 10.7944224}, "address": "Sinsenveien 27 C, Oslo", "price": "3 700 000 kr"}, "link": "https://www.finn.no/realestate/homes/ad.html?finnkode=154083915", "visnings": ["søndag 11. august, kl. 1315–1415", "mandag 12. august, kl. 1815–1900", "søndag 25. august, kl. 1200–1245"]}, {"details": {"text": "Fredensborg - Arealeffektiv 1-roms med hems - Bad fra 2006 - Perfekt førstegangskjøp - Sentral beliggenhet!", "area": "21 m²", "geocode": {"lat": 59.9189951, "lng": 10.7494795}, "address": "Deichmans gate 13, Oslo, Grünerløkka - Sofienberg", "price": "2 400 000 kr"}, "link": "https://www.finn.no/realestate/homes/ad.html?finnkode=154080735", "visnings": ["søndag 11. august, kl. 1500–1600", "tirsdag 13. august, kl. 1700–1800"]}, {"details": {"text": "St.Hanshaugen / Meyerløkka - Klassisk 4-roms toppleilighet - Kjøkken/bad fra Kvik 2006 - takhøyde 2,80 m - Pipeløp -  ved IN-ordning blir felleskostn", "area": "85 m²", "geocode": {"lat": 59.91986360000001, "lng": 10.7421329}, "address": "Wessels gate 5, Oslo, St.Hanshaugen - Ullevål", "price": "3 900 000 kr"}, "link": "https://www.finn.no/realestate/homes/ad.html?finnkode=147159859", "visnings": ["søndag 11. august, kl. 14:00–15:00", "mandag 12. august, kl. 18:00–19:00"]}, {"details": {"text": "Hovin - Attraktiv og gj.gående 3 roms toppleilighet -vestvendt solrik balkong -flott utsikt mot byen og grøntområder -peis", "area": "62 m²", "geocode": {"lat": 59.9204866, "lng": 10.7970538}, "address": "Lillebergveien 11, Oslo, Helsfyr - Sinsen", "price": "4 500 000 kr"}, "link": "https://www.finn.no/realestate/homes/ad.html?finnkode=154072510", "visnings": ["mandag 12. august, kl. 1700–1800", "tirsdag 13. august, kl. 1700–1800"]}, {"details": {"text": "Ljan Terrasse/Nordstrand - Lys og romslig leilighet - Mulighet for et ekstra sov - Balkong - parkeringsplass - oppussing", "area": "66 m²", "geocode": {"lat": 59.85026679999999, "lng": 10.7822816}, "address": "Ljan terrasse 1, Oslo, Nordstrand", "price": "3 100 000 kr"}, "link": "https://www.finn.no/realestate/homes/ad.html?finnkode=142509085", "visnings": ["tirsdag 13. august, kl. 1700–1800"]}, {"details": {"text": "Holmengrenda v./Gressbanen - Ny & Lekker 3-roms fra 2018 - God takhøyde - Markterrasse - Heis - Garasjeplass - 2 soverom", "area": "77 m²", "geocode": {"lat": 59.9478114, "lng": 10.6639019}, "address": "Stasjonsveien 55 A, Oslo, Røa", "price": "5 990 000 kr"}, "link": "https://www.finn.no/realestate/homes/ad.html?finnkode=154028653", "visnings": ["søndag 11. august, kl. 12:30–13:30", "mandag 12. august, kl. 18:30–19:30"]}, {"details": {"text": "Bjørvika - Munch Brygge - Ny & betydelig påkostet selveierleilighet, med 11 m2 balkong - utsikt mot fjord og Ekeberg - * Leie/kjøp av garasje", "area": "50 m²", "geocode": {"lat": 59.90767510000001, "lng": 10.7554192}, "address": "Operagata 33, Oslo, Gamle Oslo", "price": "6 749 000 kr"}, "link": "https://www.finn.no/realestate/homes/ad.html?finnkode=154059084", "visnings": ["søndag 25. august, kl. 17:00–19:00", "mandag 26. august, kl. 18:00–20:00", "søndag 25. august, kl. 17:00–18:00", "mandag 26. august, kl. 18:00–19:00"]}, {"details": {"text": "Fredensborg - stor og attraktiv 3-roms leilighet med fantastisk beliggenhet.", "area": "88 m²", "geocode": {"lat": 59.91817159999999, "lng": 10.7487612}, "address": "Wilses gate 8A, Oslo, Grünerløkka - Sofienberg", "price": "5 225 000 kr"}, "link": "https://www.finn.no/realestate/homes/ad.html?finnkode=152670531", "visnings": ["søndag 11. august, kl. 15:00–16:00", "mandag 12. august, kl. 18:30–19:30", "mandag 19. august, kl. 17:00–18:00"]}, {"details": {"text": "Vestre Holmen / Makrellbekken - Lekkert og nyoppført hus over 4 etasjer | Moderne og høy kvalitet | Solrik hage | Dobbelgarasje | Barnevennlig område", "area": "190 m²", "geocode": {"lat": 59.9460129, "lng": 10.6663599}, "address": "Øvre Smestadvei 37 B, Oslo, Røa", "price": "13 900 000 kr"}, "link": "https://www.finn.no/realestate/homes/ad.html?finnkode=145255040", "visnings": ["torsdag 15. august, kl. 1700–1800", "søndag 18. august, kl. 1200–1300"]}, {"details": {"text": "RODELØKKA - Nydelig 2,5-roms toppleilighet med flott balkong mot fantastisk bakgård. Utvidet, delikat bad. Kort vei til Løkka.", "area": "55 m²", "geocode": {"lat": 59.9275089, "lng": 10.7723392}, "address": "Christian Michelsens gate 28, Oslo, Grünerløkka - Sofienberg", "price": "4 000 000 kr"}, "link": "https://www.finn.no/realestate/homes/ad.html?finnkode=154069397", "visnings": ["søndag 11. august, kl. 1230–1330", "mandag 12. august, kl. 1630–1730"]}, {"details": {"text": "HOLMENKOLLEN - Flott rekkehus med nydelig utsikt - Nordmarka rett utenfor døren - To garasjepl. - Perfekt for den aktive familien!", "area": "125 m²", "geocode": {"lat": 59.9721844, "lng": 10.6727832}, "address": "Holmenkollveien 170B, Oslo, Vinderen", "price": "8 500 000 kr"}, "link": "https://www.finn.no/realestate/homes/ad.html?finnkode=153165261", "visnings": ["onsdag 14. august, kl. 18:00–19:00"]}, {"details": {"text": "Høybråten - Romslig 4-roms med 2 bad, garasjeplass og vestvendt terrasse. Jokerbutikk i nabobygget og kort vei til tog/buss.", "area": "117 m²", "geocode": {"lat": 59.94433299999999, "lng": 10.9366324}, "address": "Starveien 12, Oslo, Furuset", "price": "3 600 000 kr"}, "link": "https://www.finn.no/realestate/homes/ad.html?finnkode=154068760", "visnings": ["onsdag 14. august, kl. 1730–1830"]}, {"details": {"text": "BESTE GRÜNERLØKKA -Flott 3-roms med svært god beliggenhet -Ildsted -God planløsning -2 soverom -IN-ordning -Ingen dok.av", "area": "51 m²", "geocode": {"lat": 59.9240131, "lng": 10.7578641}, "address": "Markveien 30B, Oslo, Grünerløkka - Sofienberg", "price": "3 590 000 kr"}, "link": "https://www.finn.no/realestate/homes/ad.html?finnkode=153110941", "visnings": ["søndag 11. august, kl. 13:00–14:00", "mandag 12. august, kl. 18:00–19:00"]}, {"details": {"text": "Kværnerbyen - Pen og moderne 2-roms leilighet med balkong - Bygg fra 2018 - Fyring og varmtvann inkl.", "area": "52 m²", "geocode": {"lat": 59.9028721, "lng": 10.7871137}, "address": "Freserveien 15, Oslo, Gamle Oslo", "price": "1 990 000 kr"}, "link": "https://www.finn.no/realestate/homes/ad.html?finnkode=154067540", "visnings": ["tirsdag 13. august, kl. 1800–1900"]}, {"details": {"text": "SKILLEBEKK / FROGNER - Tiltalende 5-roms toppleilighet med balkong & takterrasse - Peis - Flott utsikt - Nytt bad - Sol fra morgen til kveld!", "area": "122 m²", "geocode": {"lat": 59.9118239, "lng": 10.708875}, "address": "Niels Juels gate 4 B, Oslo, Bygdøy - Frogner", "price": "10 000 000 kr"}, "link": "https://www.finn.no/realestate/homes/ad.html?finnkode=149540073", "visnings": ["søndag 11. august, kl. 1430–1530", "tirsdag 13. august, kl. 1800–1900", "mandag 19. august, kl. 1700–1800"]}, {"details": {"text": "Veitvet - Lys og pen 3(4)-romsleilighet over 2 plan - Balkong med flott utsikt og gode solforhold - Meget barnevennlig", "area": "85 m²", "geocode": {"lat": 59.9435165, "lng": 10.845892}, "address": "Beverveien 4, Oslo, Bjerke", "price": "2 900 000 kr"}, "link": "https://www.finn.no/realestate/homes/ad.html?finnkode=150007367", "visnings": ["onsdag 14. august, kl. 1730–1830", "torsdag 22. august, kl. 1700–1800"]}, {"details": {"text": "Hasle - Gjennomgående 4-roms med solrik sørvestvendt balkong - Utsyn over grønne arealer - Barnevennelig - Oppussingsbehov", "area": "81 m²", "geocode": {"lat": 59.92310239999999, "lng": 10.7922446}, "address": "Haslekroken 7 B, Oslo, Helsfyr - Sinsen", "price": "4 500 000 kr"}, "link": "https://www.finn.no/realestate/homes/ad.html?finnkode=150332169", "visnings": ["søndag 11. august, kl. 15:00–16:00", "tirsdag 13. august, kl. 17:00–18:00"]}, {"details": {"text": "Sentralt på Grünerløkka - Meget attraktiv, lys og romslig 2-roms eierleilighet m/god takhøyde! V.vann inkl. Utleiemulighet. Bør sees!", "area": "55 m²", "geocode": {"lat": 59.92467709999999, "lng": 10.75793}, "address": "Helgesens gate 12C, Oslo, Grünerløkka - Sofienberg", "price": "3 600 000 kr"}, "link": "https://www.finn.no/realestate/homes/ad.html?finnkode=152066849", "visnings": ["søndag 11. august, kl. 13:00–14:00", "tirsdag 13. august, kl. 16:00–17:00"]}, {"details": {"text": "Sandaker / Nydalen - Lekker, oppusset 2-r med høy standard og effektiv planløsning. V.vendt balkong med gode solforhold! V.vann & fyring ink.", "area": "34 m²", "geocode": {"lat": 59.94211839999999, "lng": 10.7706019}, "address": "Sandakerveien 75, Oslo, Sagene - Torshov", "price": "3 250 000 kr"}, "link": "https://www.finn.no/realestate/homes/ad.html?finnkode=153632823", "visnings": ["søndag 11. august, kl. 14:00–15:00", "tirsdag 13. august, kl. 17:00–18:00"]}, {"details": {"text": "Marienlyst - Lys og hyggelig 4-roms selveier hjørneleilighet med balkong - Utsikt - Modernisering - Parkering* - Heis", "area": "76 m²", "geocode": {"lat": 59.93500109999999, "lng": 10.7264462}, "address": "Blindernveien 2, Oslo, St.Hanshaugen - Ullevål", "price": "6 050 000 kr"}, "link": "https://www.finn.no/realestate/homes/ad.html?finnkode=148708181", "visnings": ["søndag 11. august, kl. 1300–1400"]}, {"details": {"text": "GALGEBERG - Lys og sjarmerende 1-roms toppleilighet med originale tregulv. Flott utsikt! Lave felleskostnader med fyring og vv inkl.", "area": "35 m²", "geocode": {"lat": 59.90799759999999, "lng": 10.780195}, "address": "Galgeberg 3L, Oslo, Gamle Oslo", "price": "2 850 000 kr"}, "link": "https://www.finn.no/realestate/homes/ad.html?finnkode=153174435", "visnings": ["søndag 11. august, kl. 1300–1400"]}, {"details": {"text": "HOLMENKOLLEN - Eventyrlig villa på høydedrag med praktfull ustikt - Solrik og skjermet tomt på 2 mål - Bra 313 - 2 garasjer - Blindvei", "area": "207 m²", "geocode": {"lat": 59.963414, "lng": 10.6541119}, "address": "Måltrostveien 24B, Oslo, Vinderen", "price": "19 500 000 kr"}, "link": "https://www.finn.no/realestate/homes/ad.html?finnkode=148996055", "visnings": ["søndag 11. august, kl. 1430–1530"]}, {"details": {"text": "TORSHOV KV. VIII - Flott loftsleilighet over 3 plan i populære \"Frankrikegården\" - Peisovn - Idyllisk gårdsrom! - Ettertraktet beliggenhet", "area": "87 m²", "geocode": {"lat": 59.93488619999999, "lng": 10.7671523}, "address": "Hegermanns gate 14 A, Oslo, Sagene - Torshov", "price": "6 200 000 kr"}, "link": "https://www.finn.no/realestate/homes/ad.html?finnkode=153830666", "visnings": ["torsdag 08. august, kl. 1700–1800", "søndag 11. august, kl. 1345–1445"]}, {"details": {"text": "Disen/Årvoll - Bli inspirert - skap ditt drømmehjem! 3-r toppleil. m/solrik balkong og bad pusset opp av brl. Muligh. park.plass/elbil*", "area": "67 m²", "geocode": {"lat": 59.9424236, "lng": 10.802911}, "address": "Traverveien 34, Oslo, Grefsen - Kjelsås", "price": "3 600 000 kr"}, "link": "https://www.finn.no/realestate/homes/ad.html?finnkode=152382478", "visnings": ["søndag 11. august, kl. 15:00–16:00", "onsdag 14. august, kl. 18:00–19:00"]}, {"details": {"text": "SKULLERUD - Lekker og unik 5-roms terrasseleilighet i 1. etg (3-roms + 2-roms) - 2 terrasser - Garasjeplass - Trappefri adkomst", "area": "104 m²", "geocode": {"lat": 59.8651679, "lng": 10.8370878}, "address": "SKULLERUDVEIEN 87, Oslo, Bøler", "price": "5 390 000 kr"}, "link": "https://www.finn.no/realestate/homes/ad.html?finnkode=155359083", "visnings": ["mandag 26. august, kl. 1730–1830"]}, {"details": {"text": "ULLERN - Hyggelig enderekkehus med oppussingsbehov og stor solrik tomt. Dobbelgarasje og god parkeringsplass.", "area": "199 m²", "geocode": {"lat": 59.93262230000001, "lng": 10.6715143}, "address": "Lille Huseby vei 19, Oslo, Ullern", "price": "8 750 000 kr"}, "link": "https://www.finn.no/realestate/homes/ad.html?finnkode=149137119", "visnings": ["søndag 25. august, kl. 16:00–17:00", "mandag 26. august, kl. 17:00–18:00"]}, {"details": {"text": "AMMERUD - Meget velholdt familiebolig med 3 bad, 4 soverom, flotte uterom og garasje. Solrik utsiktstomt. Nær marka og T-bane.", "area": "180 m²", "geocode": {"lat": 59.9591604, "lng": 10.8687453}, "address": "Lilloseterveien 13a, Oslo, Grorud", "price": "10 800 000 kr"}, "link": "https://www.finn.no/realestate/homes/ad.html?finnkode=147534883", "visnings": ["tirsdag 27. august, kl. 1800–1900"]}, {"details": {"text": "Idyll i Gråbeinskvartalet! - Klassisk drømmeleilighet med solrik balkong mot en av byens vakreste bakgårder!", "area": "64 m²", "geocode": {"lat": 59.9180043, "lng": 10.7659612}, "address": "Jens Bjelkes gate 18B, Oslo, Grünerløkka - Sofienberg", "price": "4 200 000 kr"}, "link": "https://www.finn.no/realestate/homes/ad.html?finnkode=155072206", "visnings": ["mandag 26. august, kl. 17:30–18:30"]}, {"details": {"text": "RØA - Særdeles attraktiv og lys tomannsbolig- Barnevennlig- Stor og solrik hage- Garasje/p-plass- 2 bad- Peis- Sentralt på Røa", "area": "121 m²", "geocode": {"lat": 59.9462917, "lng": 10.6421067}, "address": "Finnhaugveien 38, Oslo, Røa", "price": "5 990 000 kr"}, "link": "https://www.finn.no/realestate/homes/ad.html?finnkode=155065494", "visnings": ["søndag 25. august, kl. 12:00–13:00", "tirsdag 27. august, kl. 17:00–18:00"]}, {"details": {"text": "Lindern / Valleløkka - Klassisk og nyoppusset 4-roms leilighet i 2.etg. Sentral og meget populær beliggenhet med nærhet til alt av fasiliteter", "area": "93 m²", "geocode": {"lat": 59.93208809999999, "lng": 10.7408859}, "address": "General Birchs gate 34, Oslo, St.Hanshaugen - Ullevål", "price": "7 990 000 kr"}, "link": "https://www.finn.no/realestate/homes/ad.html?finnkode=148267295", "visnings": ["søndag 25. august, kl. 14:00–15:00", "mandag 26. august, kl. 17:30–18:30"]}, {"details": {"text": "#TØYEN - Delikat og pen 2-roms hjørneleilighet øverst i bygget | Gjennomgående løsning | Solrik balkong og super utsikt | Peis", "area": "58 m²", "geocode": {"lat": 59.9151366, "lng": 10.7746745}, "address": "Ringgata 1A, Oslo, Gamle Oslo", "price": "3 650 000 kr"}, "link": "https://www.finn.no/realestate/homes/ad.html?finnkode=155398558", "visnings": ["søndag 25. august, kl. 1500–1600", "mandag 26. august, kl. 1700–1800"]}, {"details": {"text": "Grünerløkka - Lekker 3-roms toppleilighet over to plan fra 2006 - Gulvareal ca. 60m² - Bygård renovert 2006 - Ingen forkjøp/dok.avgift", "area": "53 m²", "geocode": {"lat": 59.92101959999999, "lng": 10.7696198}, "address": "Trondheimsveien 35C, Oslo, Grünerløkka - Sofienberg", "price": "3 950 000 kr"}, "link": "https://www.finn.no/realestate/homes/ad.html?finnkode=155392889", "visnings": ["søndag 25. august, kl. 14:00–15:00", "mandag 26. august, kl. 17:00–18:00"]}, {"details": {"text": "Krydderhagen/Hasle - BESTE Krydderhagen - Meget pen og romslig 4-roms fra 2016 med 2 balkonger, 2 baderom, heis og mul. for kjøp av garasjep.", "area": "96 m²", "geocode": {"lat": 59.9276449, "lng": 10.7927034}, "address": "Bøkkerveien 32B, Oslo, Helsfyr - Sinsen", "price": "6 700 000 kr"}, "link": "https://www.finn.no/realestate/homes/ad.html?finnkode=155397013", "visnings": ["søndag 25. august, kl. 12:00–13:00", "mandag 26. august, kl. 17:00–18:00"]}, {"details": {"text": "IDYLLISK BELIGGENHET VED ILAPARKEN - Flott hjørneleilighet beliggende i rolige omgivelser med herlig utsikt - God standard med bad og kjøkken fra 2012 - Peis", "area": "37 m²", "geocode": {"lat": 59.9309127, "lng": 10.7523775}, "address": "Claus Riis' gate 7A, Oslo, Sagene - Torshov", "price": "3 300 000 kr"}, "link": "https://www.finn.no/realestate/homes/ad.html?finnkode=154907222", "visnings": ["søndag 25. august, kl. 15:00–16:00", "tirsdag 27. august, kl. 17:00–18:00"]}, {"details": {"text": "Frogner - Klassisk og meget romslig selveierleilighet med oppussingsbehov - Balkong, stukkatur, rosett, ildsteder og god takhøyde", "area": "178 m²", "geocode": {"lat": 59.9161628, "lng": 10.7173038}, "address": "Oscars gate 79, Oslo, Bygdøy - Frogner", "price": "12 800 000 kr"}, "link": "https://www.finn.no/realestate/homes/ad.html?finnkode=147943557", "visnings": ["søndag 25. august, kl. 1300–1400", "mandag 26. august, kl. 1700"]}, {"details": {"text": "#GAMLEBYEN - 2-roms perfekt for førstegangskjøpern med god planløsning I Planlagt markterrasse  I IN-Ordning I Ingen forkjøpsrett", "area": "33 m²", "geocode": {"lat": 59.9025532, "lng": 10.7724918}, "address": "Konows gate 8 A, Oslo, Gamle Oslo", "price": "2 850 000 kr"}, "link": "https://www.finn.no/realestate/homes/ad.html?finnkode=155394111", "visnings": ["søndag 25. august, kl. 1430–1530", "tirsdag 27. august, kl. 1700–1800"]}, {"details": {"text": "SINSEN 3-ROMS 2(3)-roms andelsleilighet m/ separat utleiedel. Felles takterrasse med sjøutsikt!", "area": "60 m²", "geocode": {"lat": 59.92872689999999, "lng": 10.7803169}, "address": "Sinsenveien 7, Oslo, Helsfyr - Sinsen", "price": "3 700 000 kr"}, "link": "https://www.finn.no/realestate/homes/ad.html?finnkode=152749108", "visnings": ["søndag 25. august, kl. 1400–1500"]}, {"details": {"text": "Kalbakken - Gjennomgående og pen 3-roms toppleilighet | Meget god planløsning | Nordvestvendt balkong | Flotte rekreasjonsmuligheter", "area": "63 m²", "geocode": {"lat": 59.9489062, "lng": 10.8640189}, "address": "Nedre Kalbakkvei 7, Oslo, Grorud", "price": "3 080 000 kr"}, "link": "https://www.finn.no/realestate/homes/ad.html?finnkode=152786906", "visnings": ["søndag 25. august, kl. 1400–1500", "mandag 26. august, kl. 1730–1830"]}, {"details": {"text": "Pen 4-roms andelsleilighet - 2 etasje- Barnevennlig - God planløsning - Gode solforhold - Kort vei til off kommunikasjon", "area": "79 m²", "geocode": {"lat": 59.84398290000001, "lng": 10.8118457}, "address": "Nebbejordet 11, Oslo, Søndre Nordstrand", "price": "3 200 000 kr"}, "link": "https://www.finn.no/realestate/homes/ad.html?finnkode=148628641", "visnings": ["søndag 25. august, kl. 14:45–15:45"]}, {"details": {"text": "Hasle/Hovin - Lekker og gjennomgående 3-roms leilighet beliggende i 3.etg med nyere kjøkken | Peis | Solrik balkong med fin utsikt!", "area": "64 m²", "geocode": {"lat": 59.9215523, "lng": 10.7969187}, "address": "St. Jørgens vei 41, Oslo, Helsfyr - Sinsen", "price": "4 300 000 kr"}, "link": "https://www.finn.no/realestate/homes/ad.html?finnkode=155391502", "visnings": ["søndag 25. august, kl. 1200–1300", "mandag 26. august, kl. 1700–1800"]}, {"details": {"text": "Ellingsrud Vest - Skansen terrasse - Innflytningsklar, 84 kvm 3 roms endeleilighet i toppetasjen med flott utsyn. Heis. 11,5 kvm solrik balkong. Garasjeplass", "area": "84 m²", "geocode": {"lat": 59.93671939999999, "lng": 10.9099555}, "address": "Skansen Terrasse 22, Oslo, Furuset", "price": "3 080 000 kr"}, "link": "https://www.finn.no/realestate/homes/ad.html?finnkode=155393034", "visnings": ["søndag 25. august, kl. 1200–1300", "mandag 26. august, kl. 1700–1800"]}, {"details": {"text": "Grefsenåsen - Grefsen - Unik toppleilighet på 192 m²  P-rom med panoramautsikt - Store terrasser på 55 m² og 9 m² - Garasje", "area": "192 m²", "geocode": {"lat": 59.9616463, "lng": 10.7989336}, "address": "Trollfaret 6A, Oslo, Grefsen - Kjelsås", "price": "13 500 000 kr"}, "link": "https://www.finn.no/realestate/homes/ad.html?finnkode=144275391", "visnings": ["søndag 25. august, kl. 12:00–13:00", "mandag 26. august, kl. 17:00–18:00"]}, {"details": {"text": "GAMLEBYEN - Stor og lys 2-roms svært sentralt beliggende i Gamlebyen. Solrik balkong. Vv., TV og internett inkl. Heis. IN-ordning.", "area": "54 m²", "geocode": {"lat": 59.9077755, "lng": 10.7709792}, "address": "Schweigaards gate 63, Oslo, Gamle Oslo", "price": "3 200 000 kr"}, "link": "https://www.finn.no/realestate/homes/ad.html?finnkode=155019289", "visnings": ["søndag 25. august, kl. 15:15–16:15", "tirsdag 27. august, kl. 16:30–17:30"]}, {"details": {"text": "OPPSAL - Innholdsrikt rekkehus over tre etasjer med to flotte, solfylte uteplasser -  Kjøkkeninnredning fra 2018 - P-plass!", "area": "116 m²", "geocode": {"lat": 59.89496029999999, "lng": 10.8553676}, "address": "Tyristubbveien 63, Oslo, Østensjø", "price": "6 500 000 kr"}, "link": "https://www.finn.no/realestate/homes/ad.html?finnkode=151911669", "visnings": ["søndag 25. august, kl. 1300–1400", "mandag 26. august, kl. 1630–1730"]}, {"details": {"text": "#WALDEMARS HAGE - Attraktiv 2-roms i 4.etg med heis | Balkong mot Akerselva | Felles takterrasse | VV & fyring inkl. i lave fellesutgifter", "area": "45 m²", "geocode": {"lat": 59.92701539999999, "lng": 10.752647}, "address": "Waldemars hage 4, Oslo, Grünerløkka - Sofienberg", "price": "4 250 000 kr"}, "link": "https://www.finn.no/realestate/homes/ad.html?finnkode=155391417", "visnings": ["søndag 25. august, kl. 1300–1400", "mandag 26. august, kl. 1700–1800"]}, {"details": {"text": "SKØYEN/SJØLYST - Stor, lys og gjgående 3(4)R selveier i 4. etg. med 2 terrasser. 2 bad. Gasspeis. Heis. Garasjeplass.", "area": "107 m²", "geocode": {"lat": 59.9191328, "lng": 10.6868947}, "address": "Karenslyst allé 3 A, Oslo, Ullern", "price": "8 200 000 kr"}, "link": "https://www.finn.no/realestate/homes/ad.html?finnkode=154264734", "visnings": ["søndag 25. august, kl. 13:30–14:30", "tirsdag 27. august, kl. 16:00–17:00"]}, {"details": {"text": "Supersentralt på Lambertseter - Usjenert og gjennomgående 3-roms i blindvei - Solrik balkong og utsikt", "area": "64 m²", "geocode": {"lat": 59.8775304, "lng": 10.8166701}, "address": "Nylænde 17, Oslo, Lambertseter", "price": "3 300 000 kr"}, "link": "https://www.finn.no/realestate/homes/ad.html?finnkode=155063727", "visnings": ["søndag 25. august, kl. 15:00–16:00"]}, {"details": {"text": "Sjeldent gjennomført 4-roms med sydvendt veranda og frodig beliggenhet mot parken. Omfattende oppgradert i 2017/2018.", "area": "106 m²", "geocode": {"lat": 59.93105480000001, "lng": 10.7320249}, "address": "Stensgata 24 A, Oslo, St.Hanshaugen - Ullevål", "price": "9 850 000 kr"}, "link": "https://www.finn.no/realestate/homes/ad.html?finnkode=155390727", "visnings": ["søndag 25. august, kl. 1500–1600", "mandag 26. august, kl. 1715–1815"]}, {"details": {"text": "Nordberg - Praktfull funkiseiendom på stor solrik tomt - atelier", "area": "242 m²", "geocode": {"lat": 59.95984230000001, "lng": 10.7338395}, "address": "Sognsveien 149, Oslo, Sogn", "price": "22 000 000 kr"}, "link": "https://www.finn.no/realestate/homes/ad.html?finnkode=155390325", "visnings": ["søndag 25. august, kl. 1330–1430", "mandag 26. august, kl. 1830–1930"]}, {"details": {"text": "VALLEHOVIN / HOVINENGA - Flott, ny (august 2019) og ubebodd 4-roms hjørneleilighet med to store balkonger - Garasjeplass - Heis - 2. etg.", "area": "80 m²", "geocode": {"lat": 59.91678340000001, "lng": 10.8028178}, "address": "Innspurten 10A, Oslo, Helsfyr - Sinsen", "price": "6 150 000 kr"}, "link": "https://www.finn.no/realestate/homes/ad.html?finnkode=154991102", "visnings": ["søndag 25. august, kl. 15:00–16:00", "tirsdag 27. august, kl. 17:00–18:00"]}, {"details": {"text": "ROSENHOFF - Lys og usjenert 3-roms toppleilighet med fantastisk utsikt - Solrik takterrasse - Moderniseringsbehov -Flott beliggenhet", "area": "87 m²", "geocode": {"lat": 59.92934330000001, "lng": 10.7749339}, "address": "Rosenhoffgata 12 A, Oslo, Grünerløkka - Sofienberg", "price": "6 200 000 kr"}, "link": "https://www.finn.no/realestate/homes/ad.html?finnkode=155389943", "visnings": ["torsdag 22. august, kl. 1700–1800", "søndag 25. august, kl. 1200–1300"]}, {"details": {"text": "Bislett / Bolteløkka - Gjennomgående, lys og delikat 3(4)-roms aksjeleilighet. Ettertraktet beliggenhet. Peis. Ingen dok.avg. Fyring/vv. inkl.", "area": "75 m²", "geocode": {"lat": 59.9276236, "lng": 10.7335233}, "address": "Eugenies gate 8B, Oslo, St.Hanshaugen - Ullevål", "price": "5 390 000 kr"}, "link": "https://www.finn.no/realestate/homes/ad.html?finnkode=151103771", "visnings": ["søndag 25. august, kl. 13:30–15:15"]}, {"details": {"text": "TÅSEN/KORSVOLL - Lekker halvpart av tomannsbolig over to plan - Moderne kjøkken - Fem soverom - Garasje - Solrik hage - Rammetillattelse*", "area": "205 m²", "geocode": {"lat": 59.9542915, "lng": 10.7588112}, "address": "Bergrådveien 19, Oslo, Sogn", "price": "13 500 000 kr"}, "link": "https://www.finn.no/realestate/homes/ad.html?finnkode=155092187", "visnings": ["søndag 25. august, kl. 13:30–14:30", "mandag 26. august, kl. 19:00–20:00"]}, {"details": {"text": "ST. HANSHAUGEN - Elegant, klassisk 3-roms med nyere bad og kjøkken - Balkong - Rosett og stukkatur - Felles takterrasse - Nydelig bakgård", "area": "57 m²", "geocode": {"lat": 59.9242271, "lng": 10.7430415}, "address": "Bjerregaards gate 22A, Oslo, St.Hanshaugen - Ullevål", "price": "4 990 000 kr"}, "link": "https://www.finn.no/realestate/homes/ad.html?finnkode=154979442", "visnings": ["søndag 25. august, kl. 12:00–13:00", "mandag 26. august, kl. 17:00–18:00"]}, {"details": {"text": "IDYLLISKE SKØYEN/BESTUM - Herlig bolig med rekkehusfølelse - Solrik terrasse på over 9 kvm - Store vindusflater - Vakkert utsyn mot grøntarealer", "area": "79 m²", "geocode": {"lat": 59.9189025, "lng": 10.6652982}, "address": "Bestumveien 2F, Oslo, Ullern", "price": "4 740 000 kr"}, "link": "https://www.finn.no/realestate/homes/ad.html?finnkode=152596469", "visnings": ["lørdag 24. august, kl. 14:00–15:00"]}, {"details": {"text": "ETTERSTAD - Sjelden anledning! Meget attraktiv 4-roms i høy 1. etasje med solrik balkong  og Garasje* - Sentralt og barnevennlig", "area": "79 m²", "geocode": {"lat": 59.91040830000001, "lng": 10.7976494}, "address": "ETTERSTADSLETTA 9 A, Oslo, Helsfyr - Sinsen", "price": "4 850 000 kr"}, "link": "https://www.finn.no/realestate/homes/ad.html?finnkode=155388252", "visnings": ["søndag 25. august, kl. 1200–1300"]}, {"details": {"text": "GRØNLAND V/BOTANISK HAGE - Sjarmerende og lys 3-roms med klassiske detaljer - God takhøyde - Peis - Moderne kjøkken - Hyggelig bakgård", "area": "60 m²", "geocode": {"lat": 59.9142085, "lng": 10.7676076}, "address": "Heimdalsgata 42, Oslo, Gamle Oslo", "price": "3 600 000 kr"}, "link": "https://www.finn.no/realestate/homes/ad.html?finnkode=147416287", "visnings": ["mandag 26. august, kl. 1700–1800"]}, {"details": {"text": "TÅSEN - 3- roms selveierleilighet i 2 etasje med  solrik balkong.", "area": "62 m²", "geocode": {"lat": 59.95217049999999, "lng": 10.7496351}, "address": "Gjennomfaret 40A, Oslo, Sogn", "price": "4 400 000 kr"}, "link": "https://www.finn.no/realestate/homes/ad.html?finnkode=155068770", "visnings": ["søndag 25. august, kl. 12:30–13:30", "mandag 26. august, kl. 17:00–18:00"]}, {"details": {"text": "Sagene - Attraktiv 3-roms toppleilighet over 2 plan, solrik balkong m/flott utsyn, heis, garasjeplass og koselig bakgård", "area": "77 m²", "geocode": {"lat": 59.93779920000001, "lng": 10.754394}, "address": "Arendalsgata 14, Oslo, Sagene - Torshov", "price": "6 350 000 kr"}, "link": "https://www.finn.no/realestate/homes/ad.html?finnkode=155387143", "visnings": ["søndag 25. august, kl. 1400–1500", "mandag 26. august, kl. 1700–1800"]}, {"details": {"text": "Sinsen - 3- roms oppussingsobjekt med praktisk planløsning i 2. etasje- Selveier- VV og fyring ink- Parkering etter liste", "area": "53 m²", "geocode": {"lat": 59.9338025, "lng": 10.7810149}, "address": "Sinsenterrassen 13, Oslo, Helsfyr - Sinsen", "price": "3 250 000 kr"}, "link": "https://www.finn.no/realestate/homes/ad.html?finnkode=154972526", "visnings": ["mandag 26. august, kl. 18:30–19:30", "tirsdag 27. august, kl. 16:30–17:30"]}, {"details": {"text": "FROGNER - Lekker 3(4)-roms loftsleilighet over 2 plan med takterrasse - Etterspurt beliggenhet i en fantastisk bygård", "area": "77 m²", "geocode": {"lat": 59.9168483, "lng": 10.715711}, "address": "Behrens` gate 6, Oslo, Bygdøy - Frogner", "price": "6 750 000 kr"}, "link": "https://www.finn.no/realestate/homes/ad.html?finnkode=155386441", "visnings": ["søndag 25. august, kl. 1200–1300", "mandag 26. august, kl. 1700–1800"]}, {"details": {"text": "Holmenkollen - HOLMENKOLLEN - Ny bolig - Påkostet halvpart av tomannsbolig m/ høy standard og imponerende utsikt - Underjordisk garasje", "area": "177 m²", "geocode": {"lat": 59.95683620000001, "lng": 10.6681717}, "address": "Holmenkollveien 90, Oslo, Vinderen", "price": "14 990 000 kr"}, "link": "https://www.finn.no/realestate/homes/ad.html?finnkode=155386254", "visnings": ["søndag 25. august, kl. 16:00–17:00", "tirsdag 27. august, kl. 17:00–18:00"]}, {"details": {"text": "Vika/Solli plass - P64 - Delikat og praktisk 2-roms selveier i urbane P64 - Supersentralt og attraktivt beliggende - V.v. bredbånd og fyring ink.", "area": "40 m²", "geocode": {"lat": 59.91439310000001, "lng": 10.7216949}, "address": "Parkveien 64, Oslo, Bygdøy - Frogner", "price": "3 490 000 kr"}, "link": "https://www.finn.no/realestate/homes/ad.html?finnkode=153325765", "visnings": ["søndag 25. august, kl. 1600–1700"]}, {"details": {"text": "VALLE HOVIN - Lekker 2-roms hjørneleilighet | Fantastisk beliggenhet. Utsikt over Hovindammen | Balkong på 7 kvm | Peisovn | Bør sees!", "area": "52 m²", "geocode": {"lat": 59.92006539999999, "lng": 10.8018887}, "address": "Vallefaret 20, Oslo, Helsfyr - Sinsen", "price": "3 550 000 kr"}, "link": "https://www.finn.no/realestate/homes/ad.html?finnkode=155384750", "visnings": ["søndag 25. august, kl. 1400–1500", "mandag 26. august, kl. 1730–1830"]}, {"details": {"text": "BESTE GRÜNERLØKKA - Klassisk og sjarmerende studioleilighet på en svært attraktiv adresse. Ingen dokumentavgift og lave felleskostnader.", "area": "30 m²", "geocode": {"lat": 59.9243773, "lng": 10.7549339}, "address": "Fossveien 16 C, Oslo, Grünerløkka - Sofienberg", "price": "2 935 000 kr"}, "link": "https://www.finn.no/realestate/homes/ad.html?finnkode=152790825", "visnings": ["søndag 25. august, kl. 1300–1400", "mandag 26. august, kl. 1700–1800"]}, {"details": {"text": "NYDALEN - Meget attraktiv, lys og pen 2-roms i 6. etg m/heis og stor solrik balkong. Ny 2015. Lave fellesutg inkl v.v/fyr-Garasje*", "area": "45 m²", "geocode": {"lat": 59.94611800000001, "lng": 10.7694579}, "address": "Fernanda Nissens gate 4A, Oslo, Sagene - Torshov", "price": "4 300 000 kr"}, "link": "https://www.finn.no/realestate/homes/ad.html?finnkode=147525649", "visnings": ["søndag 25. august, kl. 13:30–14:30", "mandag 26. august, kl. 18:45–19:45"]}, {"details": {"text": "TOPPEN AV KVÆRNERBYEN - Fantastisk 5-roms selveierleilighet - Hybeldel - Garasjeplass - To balkonger med flott utsikt - Sjelden mulighet", "area": "106 m²", "geocode": {"lat": 59.9027749, "lng": 10.7893303}, "address": "Freserveien 45, Oslo, Gamle Oslo", "price": "8 500 000 kr"}, "link": "https://www.finn.no/realestate/homes/ad.html?finnkode=154998982", "visnings": ["søndag 25. august, kl. 14:00–15:00", "mandag 26. august, kl. 17:00–18:00"]}, {"details": {"text": "LILLO GÅRD I NYDALEN - Nyoppført og lekker 2-roms selveier (2019) med vestvendt balkong - Lave fellesutgifter - Felles takterrasser - Sentralt!", "area": "40 m²", "geocode": {"lat": 59.9451967, "lng": 10.7713447}, "address": "Sandakerveien 104, Oslo, Sagene - Torshov", "price": "4 200 000 kr"}, "link": "https://www.finn.no/realestate/homes/ad.html?finnkode=152829471", "visnings": ["søndag 25. august, kl. 1300–1400"]}, {"details": {"text": "TORSHOV - Svært arealeffektiv og pen 3-roms. Gulvflate på 53,5 kvm. Usjenert  balkong. Ingen forkjøpsrett. IN-ordn.", "area": "42 m²", "geocode": {"lat": 59.9352404, "lng": 10.765584}, "address": "Vogts gate 55A, Oslo, Sagene - Torshov", "price": "2 250 000 kr"}, "link": "https://www.finn.no/realestate/homes/ad.html?finnkode=153199465", "visnings": ["søndag 25. august, kl. 13:00–14:00", "mandag 26. august, kl. 16:30–17:30"]}, {"details": {"text": "ATTRAKTIVT PÅ FROGNER - Lys og lekker klassisk hjørneleil.  på 210 kvm. Oppusset 2017. Praktikantdel m/egen inngang. Balkong- 3 peiser- 3 bad", "area": "210 m²", "geocode": {"lat": 59.91696169999999, "lng": 10.7152831}, "address": "Behrens' gate 8A, Oslo, Bygdøy - Frogner", "price": "18 500 000 kr"}, "link": "https://www.finn.no/realestate/homes/ad.html?finnkode=154909087", "visnings": ["søndag 25. august, kl. 15:30–16:30", "mandag 26. august, kl. 17:00–18:00"]}, {"details": {"text": "Montebello - Lys og luftig terrasseleilighet | Direkte adkomst fra inngangsplan | Stor sydvendt terrasse m/ fjordutsikt", "area": "139 m²", "geocode": {"lat": 59.936615, "lng": 10.6611372}, "address": "Torjusbakken 20 B, Oslo, Røa", "price": "9 900 000 kr"}, "link": "https://www.finn.no/realestate/homes/ad.html?finnkode=145952481", "visnings": ["søndag 25. august, kl. 1330–1430", "tirsdag 27. august, kl. 1800–1900"]}, {"details": {"text": "Rosenhoff/Sinsen - Strøken og sentral 3-romsleilighet med høy standard - Varmtvann og fyring inkl - Lekkert kjøkken og bad fra 2016", "area": "49 m²", "geocode": {"lat": 59.93214510000001, "lng": 10.7837016}, "address": "Olaf Schous vei 19, Oslo, Helsfyr - Sinsen", "price": "3 590 000 kr"}, "link": "https://www.finn.no/realestate/homes/ad.html?finnkode=154366021", "visnings": ["mandag 19. august, kl. 16:30–17:30"]}, {"details": {"text": "Tilbaketrukket i Nye Gamlebyen - Perfekt førstegangskjøp - Lekker, smart og innholdsrik 2-roms med solrik balkong mot grønt og rolig område", "area": "47 m²", "address": "Inges gate 6L, Oslo, Gamle Oslo", "geocode": {"lat": 59.90292889999999, "lng": 10.7757913}, "price": "2 800 000 kr"}, "link": "https://www.finn.no/realestate/homes/ad.html?finnkode=153529040", "visnings": ["søndag 25. august, kl. 14:00–15:00"]}, {"details": {"text": "VOLLEBEKK/LUNDEN *Nytt townhouse *Svært barnevennlig *Innflyttingsklart * Lave omkostninger!", "area": "87 m²", "geocode": {"lat": 59.93838170000001, "lng": 10.8284809}, "address": "Lunden 41A, Oslo, Bjerke", "price": "6 390 000 kr"}, "link": "https://www.finn.no/realestate/homes/ad.html?finnkode=155389641", "visnings": ["onsdag 21. august, kl. 1700–1800"]}, {"details": {"text": "ROGNERUD: - Innholdsrik tomannsbolig i et familievennlig område | Fantastisk utsikt | 81 m² + 35 m² innredet loft | Solrik tomt", "area": "81 m²", "address": "Rognerudveien 15, Oslo, Manglerud", "geocode": {"lat": 59.8990243, "lng": 10.8250238}, "price": "5 800 000 kr"}, "link": "https://www.finn.no/realestate/homes/ad.html?finnkode=155062349", "visnings": ["søndag 25. august, kl. 15:30–16:30", "tirsdag 27. august, kl. 17:30–18:30"]}, {"details": {"text": "Hasle/Hovinbekken - Lekker 3(4)-R med nydelig utsyn og flott beliggenhet - Sydvestvendt og solrik balkong - 2 bad - Barnevennlig - Lave F.K", "area": "81 m²", "address": "Hovinveien 43B, Oslo, Helsfyr - Sinsen", "geocode": {"lat": 59.92131930000001, "lng": 10.7916934}, "price": "6 000 000 kr"}, "link": "https://www.finn.no/realestate/homes/ad.html?finnkode=153735559", "visnings": ["søndag 25. august, kl. 14:00–15:00"]}, {"details": {"text": "Frydenberg/Løren - Romslig 3-roms hjørneleilighet med flott utsikt - Fantastisk sydvestvendt balkong på 18 kvm - Garasjeplass medfølger!", "area": "70 m²", "geocode": {"lat": 59.9284349, "lng": 10.7874837}, "address": "Seljeveien 7, Oslo, Helsfyr - Sinsen", "price": "5 700 000 kr"}, "link": "https://www.finn.no/realestate/homes/ad.html?finnkode=155089536", "visnings": ["søndag 25. august, kl. 12:00–13:00", "mandag 26. august, kl. 16:30–17:30"]}, {"details": {"text": "Vettakollen- Flott terrasseleilighet nære marka og byen- Rehabilitert 2015- 2 garasjeplasser - 44 kvm vestvendt terrasse", "area": "172 m²", "geocode": {"lat": 59.9608974, "lng": 10.6971577}, "address": "Gulleråsveien 59, Oslo, Vinderen", "price": "14 490 000 kr"}, "link": "https://www.finn.no/realestate/homes/ad.html?finnkode=155403611", "visnings": ["mandag 26. august, kl. 1900–2000", "tirsdag 27. august, kl. 1900–2000"]}, {"details": {"text": "Vinderen - Lekker arkitekttegnet 2-mannsbolig ( Ny 2013 ) med gjennomgående god standard og landlige omgivelser", "area": "184 m²", "geocode": {"lat": 59.9431519, "lng": 10.693726}, "address": "Biskop Grimelunds vei 2A, Oslo, Vinderen", "price": "14 490 000 kr"}, "link": "https://www.finn.no/realestate/homes/ad.html?finnkode=155403289", "visnings": ["mandag 26. august, kl. 1700–1800", "tirsdag 27. august, kl. 1700–1800"]}, {"details": {"text": "Holmen - Lys og delikat 4-roms med vestvendt balkong og flott utsyn mot grøntområde. Kort gange til skole og T-bane.", "area": "83 m²", "geocode": {"lat": 59.9493676, "lng": 10.6658315}, "address": "Stasjonsveien 45 A, Oslo, Røa", "price": "4 950 000 kr"}, "link": "https://www.finn.no/realestate/homes/ad.html?finnkode=155403094", "visnings": ["søndag 25. august, kl. 1500–1600", "mandag 26. august, kl. 1700–1800"]}, {"details": {"text": "Villa med Frognerparken som hage - En idyll av de sjeldne - Hans og Grete hus - Sjarmerende gammeldags hage - Blindgate", "area": "231 m²", "geocode": {"lat": 59.92615049999999, "lng": 10.6972439}, "address": "Madserud allé 58, Oslo, Bygdøy - Frogner", "price": "26 850 000 kr"}, "link": "https://www.finn.no/realestate/homes/ad.html?finnkode=147663722", "visnings": ["mandag 19. august, kl. 1630–1730"]}, {"details": {"text": "Innerst og stille - Stor toppleil.med heis -  Flott solrik og usjenert terrasse med utsikt - 2 peiser - 2 garasjepl.", "area": "169 m²", "address": "Bygdøy allé 81 A, Oslo, Bygdøy - Frogner", "geocode": {"lat": 59.92051660000001, "lng": 10.6961269}, "price": "15 900 000 kr"}, "link": "https://www.finn.no/realestate/homes/ad.html?finnkode=149492793", "visnings": ["torsdag 22. august, kl. 1730–1830", "søndag 25. august, kl. 1700–1800"]}, {"details": {"text": "#KVÆRNERBYEN - Lekker 3-roms hjørneleilighet i 7 etg. med stor takterrasse på 29 m2 | Nytt fra 2018 | Garasjeplass og heis | Utsikt", "area": "64 m²", "address": "Freserveien 11, Oslo, Gamle Oslo", "geocode": {"lat": 59.90291759999999, "lng": 10.7869249}, "price": "2 950 000 kr"}, "link": "https://www.finn.no/realestate/homes/ad.html?finnkode=155402284", "visnings": ["søndag 25. august, kl. 1300–1400", "mandag 26. august, kl. 1700–1800"]}, {"details": {"text": "ST. HANSHAUGEN/ ILA - Romslig og pen 2-roms leilighet med separat kjøkken, nydelige rosetter, stemningsfull peis og flott beliggenhet.", "area": "55 m²", "address": "Colletts gate 71, Oslo, St.Hanshaugen - Ullevål", "geocode": {"lat": 59.9315415, "lng": 10.7470655}, "price": "3 640 000 kr"}, "link": "https://www.finn.no/realestate/homes/ad.html?finnkode=153829999", "visnings": ["torsdag 22. august, kl. 1730–1830", "søndag 25. august, kl. 1300–1400"]}, {"details": {"text": "#Grünerløkka - Flott og gjennomgående 2-roms | IN-ordning | Kabel-tv & bredbånd inkl | Lave omkostninger | Sentral beliggenhet!", "area": "41 m²", "address": "Sannergata 15B, Oslo, Grünerløkka - Sofienberg", "geocode": {"lat": 59.92845930000001, "lng": 10.7635836}, "price": "2 400 000 kr"}, "link": "https://www.finn.no/realestate/homes/ad.html?finnkode=155400640", "visnings": ["søndag 25. august, kl. 1530–1630", "mandag 26. august, kl. 1900–2000"]}, {"details": {"text": "RØA/ULLERNTOPPEN - Ny pris! 4/5-roms endeleilighet| Garasjepl. m/mulighet for elbil lader - 2 terrasser med gode solforhold", "area": "130 m²", "address": "Ostadalsveien 72, Oslo, Røa", "geocode": {"lat": 59.93709250000001, "lng": 10.6535304}, "price": "6 900 000 kr"}, "link": "https://www.finn.no/realestate/homes/ad.html?finnkode=147745563", "visnings": ["søndag 25. august, kl. 1200–1300"]}, {"details": {"text": "Tilbaketrukket og lys 2-roms på øvre Løkka. Fyring/vartmvann, TV/internett inkl. Sentralt beliggende, i blindgate.", "area": "40 m²", "geocode": {"lat": 59.9293948, "lng": 10.7666686}, "address": "Hans Barliens gate 1 A, Oslo, Grünerløkka - Sofienberg", "price": "3 100 000 kr"}, "link": "https://www.finn.no/realestate/homes/ad.html?finnkode=155400373", "visnings": ["søndag 25. august, kl. 1215–1315"]}, {"details": {"text": "GULLBILLETTEN INN PÅ BOLIGMARKEDET - Ypperlig førstegangskjøp - Loftsleilighet m/egen hybeldel og mulighet for skattefri leieinntekt - Attraktiv beliggenhet!", "area": "41 m²", "address": "Alnagata 11, Oslo, Gamle Oslo", "geocode": {"lat": 59.9030552, "lng": 10.7726875}, "price": "1 950 000 kr"}, "link": "https://www.finn.no/realestate/homes/ad.html?finnkode=155260244", "visnings": ["mandag 26. august, kl. 1700–1800"]}, {"details": {"text": "ØVRE GRÜNERLØKKA - Lys og klassisk 3-roms med herlig balkong - Nytt bad (2016) - Vedovn - Enstavs parkett - Attraktivt og sentralt!", "area": "64 m²", "geocode": {"lat": 59.9285633, "lng": 10.7651782}, "address": "Sannergata 21 A inngang fra enveiskjørte Christies gate, Oslo, Grünerløkka - Sofienberg", "price": "4 630 000 kr"}, "link": "https://www.finn.no/realestate/homes/ad.html?finnkode=153340377", "visnings": ["søndag 25. august, kl. 1200–1300"]}, {"details": {"text": "Disen/Årvoll - Lys 3-roms hjørneleilighet med solrik balkong - Vv. og fyring inkl. i felleskostnader - Rolig og attraktivt boområde", "area": "67 m²", "address": "Traverveien 36, Oslo, Grefsen - Kjelsås", "geocode": {"lat": 59.9421666, "lng": 10.8027464}, "price": "4 150 000 kr"}, "link": "https://www.finn.no/realestate/homes/ad.html?finnkode=149171974", "visnings": ["lørdag 24. august, kl. 1300–1345"]}, {"details": {"text": "Sagene/Iladalen - Lekker 2-roms hjørneleilighet med peis - God standard - Originale tregulv - Tv og internett inkl. - Nymalt i 2019", "area": "54 m²", "geocode": {"lat": 59.93364389999999, "lng": 10.7502028}, "address": "Uelands gate 61H, Oslo, Sagene - Torshov", "price": "3 700 000 kr"}, "link": "https://www.finn.no/realestate/homes/ad.html?finnkode=155317871", "visnings": ["søndag 25. august, kl. 15:30–16:30", "tirsdag 27. august, kl. 17:00–18:00"]}, {"details": {"text": "BJØLSEN/SAGENE - STRØKEN TOPP- OG ENDELEILIGHET - rett ved felles solrik takterrasse | Oppusset i 2019  | Heis | \"Alt\" inkl. i f.utg", "area": "18 m²", "geocode": {"lat": 59.94436510000001, "lng": 10.7586649}, "address": "Stavangergata 46 A, Oslo, Sagene - Torshov", "price": "1 990 000 kr"}, "link": "https://www.finn.no/realestate/homes/ad.html?finnkode=155071825", "visnings": ["søndag 25. august, kl. 13:30–14:30", "mandag 26. august, kl. 16:45–17:45"]}, {"details": {"text": "Skøyen/Sjølyststranda - Fantastisk 3-roms frontleilighet med stor innglasset veranda og utsikt mot fjorden! Heis og garasjeplass.", "area": "81 m²", "geocode": {"lat": 59.92026019999999, "lng": 10.6806137}, "address": "Messepromenaden 10, Oslo, Ullern", "price": "8 200 000 kr"}, "link": "https://www.finn.no/realestate/homes/ad.html?finnkode=153951402", "visnings": ["søndag 25. august, kl. 1230–1330"]}, {"details": {"text": "BO HØYT OG LUFTIG PÅ GREFSEN - Lekker selveier med vidstrakt utsikt | Solrik, vestvendt terrasse | Usjenert beliggenhet | Heis | Garasje!", "area": "30 m²", "address": "Grefsenkollveien 12C, Oslo, Grefsen - Kjelsås", "geocode": {"lat": 59.9548995, "lng": 10.7962931}, "price": "3 000 000 kr"}, "link": "https://www.finn.no/realestate/homes/ad.html?finnkode=155408009", "visnings": ["søndag 25. august, kl. 1200–1300", "mandag 26. august, kl. 1815–1900"]}, {"details": {"text": "SØRENGA - Nyere 4-roms endeleil. med egen hybel. Terrasse på 33 m² og heis rett opp til felles takterrasse. Mulig garasjeleie.", "area": "88 m²", "address": "Sørengkaia 61, Oslo, Gamle Oslo", "geocode": {"lat": 59.9029664, "lng": 10.7551897}, "price": "7 500 000 kr"}, "link": "https://www.finn.no/realestate/homes/ad.html?finnkode=153965566", "visnings": ["søndag 25. august, kl. 1200–1300", "tirsdag 27. august, kl. 1700–1800"]}, {"details": {"text": "RODELØKKA | GRÜNERLØKKA - Smart, sjarmerende 3-roms med husfølelse i hjertet av  Løkka . Funksjonell løsning, sydvendt balkong og privat inngang.", "area": "44 m²", "address": "Gøteborggata 37B, Oslo, Grünerløkka - Sofienberg", "geocode": {"lat": 59.926396, "lng": 10.7698836}, "price": "3 800 000 kr"}, "link": "https://www.finn.no/realestate/homes/ad.html?finnkode=155110184", "visnings": ["søndag 25. august, kl. 13:30–14:30", "mandag 26. august, kl. 17:00–18:00"]}, {"details": {"text": "Holmenkollen - Velholdt og pen halvpart av tomannsbolig med solrik hage - Nyere terrasse med pergola - Garasje - Barnevennlig!", "area": "177 m²", "address": "Trostefaret 37, Oslo, Vinderen", "geocode": {"lat": 59.96314709999999, "lng": 10.6569267}, "price": "10 900 000 kr"}, "link": "https://www.finn.no/realestate/homes/ad.html?finnkode=155407720", "visnings": ["søndag 25. august, kl. 1500–1600", "mandag 26. august, kl. 1730–1830"]}, {"details": {"text": "Nordstrand - Solveien  - Enebolig med dobbelgarasje på solrik tomt med utsikt til fjorden!", "area": "235 m²", "address": "Solveien 108 A, Oslo, Nordstrand", "geocode": {"lat": 59.86337829999999, "lng": 10.7907564}, "price": "16 000 000 kr"}, "link": "https://www.finn.no/realestate/homes/ad.html?finnkode=155386960", "visnings": ["søndag 25. august, kl. 14:00–15:00", "mandag 26. august, kl. 17:00–18:00"]}, {"details": {"text": "Skillebekk - Lekker, påkostet og innholdsrik bygårdsleilighet. Ekstra takhøyde, solrik balkong, hybel og svært skjermet beliggenhet.", "area": "186 m²", "address": "Leiv Eirikssons gate 9 A, Oslo, Bygdøy - Frogner", "geocode": {"lat": 59.91259509999999, "lng": 10.7060534}, "price": "14 500 000 kr"}, "link": "https://www.finn.no/realestate/homes/ad.html?finnkode=155406830", "visnings": ["søndag 25. august, kl. 1330–1430", "mandag 26. august, kl. 1900–2000"]}, {"details": {"text": "Homansbyen ved Slottsparken - v/ Slottsparken - Ny (2018) rålekker leilighet med sentral beliggenhet! Høy standard - Heis i bygget!", "area": "59 m²", "address": "Linstows gate 4A, Oslo, Uranienborg - Majorstuen", "geocode": {"lat": 59.9194694, "lng": 10.7319034}, "price": "5 300 000 kr"}, "link": "https://www.finn.no/realestate/homes/ad.html?finnkode=155406613", "visnings": ["søndag 25. august, kl. 1400–1500", "mandag 26. august, kl. 1700–1800"]}]}